stop_id,stop_code,stop_name,stop_desc,stop_lat,stop_lon,location_type,parent_station,wheelchair_boarding,platform_code,zone_id,level_id
de:11000:900100007::3,,S Oranienburger Str. (Berlin),Ersatzhalt Tucholskystraße vor Oranienburger Straße,52.524724,13.392833,0,,0,,5555 S Oranienburger Str. (Berlin),4.0
de:11000:900160004:3:54,,S+U Lichtenberg Bhf (Berlin),Bahnsteig Gleis 17,52.510002,13.49649,0,de:11000:900160004,0,17.0,5656 S+U Lichtenberg Bhf (Berlin),102.0
de:11000:900160004:2:52,,S+U Lichtenberg Bhf (Berlin),Bahnsteig Gleis 15,52.510275,13.497433,0,de:11000:900160004,0,15.0,5656 S+U Lichtenberg Bhf (Berlin),102.0
de:11000:900160004:2:53,,S+U Lichtenberg Bhf (Berlin),Bahnsteig Gleis 16,52.510367,13.497302,0,de:11000:900160004,0,16.0,5656 S+U Lichtenberg Bhf (Berlin),102.0
de:11000:900160004:3:55,,S+U Lichtenberg Bhf (Berlin),Bahnsteig Gleis 20,52.510088,13.496357,0,de:11000:900160004,0,20.0,5656 S+U Lichtenberg Bhf (Berlin),102.0
de:11000:900160004:4:56,,S+U Lichtenberg Bhf (Berlin),Bahnsteig Gleis 21,52.510126,13.496304,0,de:11000:900160004,0,21.0,5656 S+U Lichtenberg Bhf (Berlin),102.0
de:11000:900160004:4:57,,S+U Lichtenberg Bhf (Berlin),Bahnsteig Gleis 22,52.510215,13.496164,0,de:11000:900160004,0,22.0,5656 S+U Lichtenberg Bhf (Berlin),102.0
de:11000:900120005:1:50,,S Ostbahnhof (Berlin),Bahnsteig Gleis 1,52.510244,13.434586,0,de:11000:900120005,0,1.0,5555 S Ostbahnhof (Berlin),107.0
de:11000:900120005:2:51,,S Ostbahnhof (Berlin),Bahnsteig Gleis 2,52.510179,13.434942,0,de:11000:900120005,0,2.0,5555 S Ostbahnhof (Berlin),107.0
de:11000:900120005:2:52,,S Ostbahnhof (Berlin),Bahnsteig Gleis 3,52.510253,13.435024,0,de:11000:900120005,0,3.0,5555 S Ostbahnhof (Berlin),107.0
de:11000:900120005:3:53,,S Ostbahnhof (Berlin),Bahnsteig Gleis 6,52.510413,13.435172,0,de:11000:900120005,0,6.0,5555 S Ostbahnhof (Berlin),107.0
de:11000:900120005:3:54,,S Ostbahnhof (Berlin),Bahnsteig Gleis 7,52.510474,13.43524,0,de:11000:900120005,0,7.0,5555 S Ostbahnhof (Berlin),107.0
de:11000:900100003:1:50,,S+U Alexanderplatz Bhf (Berlin),Bahnsteig Gleis 1,52.52145,13.411009,0,de:11000:900100003,0,1.0,5555 S+U Alexanderplatz Bhf (Berlin),15.0
de:11000:900037168:1:50,,"Berlin, Albrechtshof Bhf",Bahnsteig Gleis 1,52.549376,13.129182,0,de:11000:900037168,0,1.0,"5656 Berlin, Albrechtshof Bhf",5.0
de:11000:900037168:2:51,,"Berlin, Albrechtshof Bhf",Bahnsteig Gleis 2,52.549303,13.129131,0,de:11000:900037168,0,2.0,"5656 Berlin, Albrechtshof Bhf",5.0
000300178003,,S Schönefeld (bei Berlin) Bhf,Bahnsteig Gleis 7+9 Fernbahn,52.391152,13.512816,0,de:12061:900260005,0,7.0,5957 S Schönefeld (bei Berlin) Bhf,4.0
de:12061:900260005:1:50,,S Schönefeld (bei Berlin) Bhf,Bahnsteig Gleis 3 Fernbahn,52.391305,13.512632,0,de:12061:900260005,0,3.0,5957 S Schönefeld (bei Berlin) Bhf,4.0
de:12061:900260005:2:52,,S Schönefeld (bei Berlin) Bhf,Bahnsteig Gleis 4,52.391434,13.512447,0,de:12061:900260005,0,4.0,5957 S Schönefeld (bei Berlin) Bhf,4.0
de:12061:900260005:1:51,,S Schönefeld (bei Berlin) Bhf,Bahnsteig Gleis 5,52.391221,13.512731,0,de:12061:900260005,0,5.0,5957 S Schönefeld (bei Berlin) Bhf,4.0
de:12061:900260005:2:53,,S Schönefeld (bei Berlin) Bhf,Bahnsteig Gleis 6,52.391518,13.51233,0,de:12061:900260005,0,6.0,5957 S Schönefeld (bei Berlin) Bhf,4.0
de:11000:900064301:2:51,,S Lichterfelde Ost Bhf (Berlin),Bahnsteig Gleis 4,52.429576,13.328766,0,de:11000:900064301,0,4.0,5656 S Lichterfelde Ost Bhf (Berlin),33.0
de:11000:900064301:1:50,,S Lichterfelde Ost Bhf (Berlin),Bahnsteig Gleis 3,52.429599,13.328701,0,de:11000:900064301,0,3.0,5656 S Lichterfelde Ost Bhf (Berlin),33.0
de:11000:900152001:2:52,,S Hohenschönhausen Bhf (Berlin),Bahnsteig Gleis 3,52.566014,13.512471,0,de:11000:900152001,0,3.0,5656 S Hohenschönhausen Bhf (Berlin),22.0
de:11000:900152001:3:53,,S Hohenschönhausen Bhf (Berlin),Bahnsteig Gleis 4,52.56599,13.512415,0,de:11000:900152001,0,4.0,5656 S Hohenschönhausen Bhf (Berlin),22.0
de:11000:900170004:1:51,,S Ahrensfelde Bhf (Berlin),Bahnsteig Gleis 44,52.571393,13.565467,0,de:11000:900170004,0,44.0,5656 S Ahrensfelde Bhf (Berlin),120.0
de:11000:900192001:1:50,,S Schöneweide Bhf (Berlin),Bahnsteig Gleis 1,52.454622,13.509517,0,de:11000:900192001,0,1.0,5656 S Schöneweide Bhf (Berlin),107.0
de:11000:900192001:1:51,,S Schöneweide Bhf (Berlin),Bahnsteig Gleis 2,52.45469,13.509638,0,de:11000:900192001,0,2.0,5656 S Schöneweide Bhf (Berlin),107.0
de:11000:900023201:1:50,,S+U Zoologischer Garten Bhf (Berlin),Bahnsteig Gleis 1,52.50762,13.332927,0,de:11000:900023201,0,1.0,5555 S+U Zoologischer Garten Bhf (Berlin),8.0
de:11000:900023201:1:51,,S+U Zoologischer Garten Bhf (Berlin),Bahnsteig Gleis 2,52.507654,13.332804,0,de:11000:900023201,0,2.0,5555 S+U Zoologischer Garten Bhf (Berlin),8.0
de:11000:900023201:2:52,,S+U Zoologischer Garten Bhf (Berlin),Bahnsteig Gleis 3,52.507679,13.332686,0,de:11000:900023201,0,3.0,5555 S+U Zoologischer Garten Bhf (Berlin),8.0
de:11000:900023201:2:53,,S+U Zoologischer Garten Bhf (Berlin),Bahnsteig Gleis 4,52.507716,13.332555,0,de:11000:900023201,0,4.0,5555 S+U Zoologischer Garten Bhf (Berlin),8.0
de:11000:900029101:2:52,,S Spandau Bhf (Berlin),Bahnsteig Gleis 3,52.534667,13.197191,0,de:11000:900029101,0,3.0,5656 S Spandau Bhf (Berlin),5.0
de:11000:900029101:2:53,,S Spandau Bhf (Berlin),Bahnsteig Gleis 4,52.5346,13.197163,0,de:11000:900029101,0,4.0,5656 S Spandau Bhf (Berlin),5.0
de:11000:900029101:3:54,,S Spandau Bhf (Berlin),Bahnsteig Gleis 5,52.534541,13.197124,0,de:11000:900029101,0,5.0,5656 S Spandau Bhf (Berlin),5.0
de:11000:900029101:3:55,,S Spandau Bhf (Berlin),Bahnsteig Gleis 6,52.534484,13.1971,0,de:11000:900029101,0,6.0,5656 S Spandau Bhf (Berlin),5.0
de:11000:900053301:3:54,,S Wannsee Bhf (Berlin),Bahnsteig Gleis 5,52.421402,13.180358,0,de:11000:900053301,0,5.0,5656 S Wannsee Bhf (Berlin),9.0
de:11000:900053301:3:55,,S Wannsee Bhf (Berlin),Bahnsteig Gleis 6,52.421347,13.180446,0,de:11000:900053301,0,6.0,5656 S Wannsee Bhf (Berlin),9.0
de:11000:900053301:3:56,,S Wannsee Bhf (Berlin),Bahnsteig Gleis 8,52.42173,13.181534,0,de:11000:900053301,0,8.0,5656 S Wannsee Bhf (Berlin),9.0
de:11000:900024101:2:52,,S Charlottenburg Bhf (Berlin),Bahnsteig Gleis 3,52.504175,13.301819,0,de:11000:900024101,0,3.0,5555 S Charlottenburg Bhf (Berlin),121.0
de:11000:900024101:1:50,,S Charlottenburg Bhf (Berlin),Bahnsteig Gleis 1,52.504033,13.301903,0,de:11000:900024101,0,1.0,5555 S Charlottenburg Bhf (Berlin),121.0
de:11000:900024101:1:51,,S Charlottenburg Bhf (Berlin),Bahnsteig Gleis 2,52.504098,13.301861,0,de:11000:900024101,0,2.0,5555 S Charlottenburg Bhf (Berlin),121.0
de:11000:900024101:2:53,,S Charlottenburg Bhf (Berlin),Bahnsteig Gleis 4,52.504239,13.301782,0,de:11000:900024101,0,4.0,5555 S Charlottenburg Bhf (Berlin),121.0
de:11000:900002201,,U Birkenstr. (Berlin),,52.532269,13.341418,1,,0,,5555 U Birkenstr. (Berlin),
de:11000:900002206,,Kriminalgericht Moabit (Berlin),,52.526684,13.354805,1,,0,,5555 Kriminalgericht Moabit (Berlin),
de:11000:900003101,,U Hansaplatz (Berlin),,52.518111,13.342165,1,,0,,5555 U Hansaplatz (Berlin),
de:11000:900003102,,S Bellevue (Berlin),,52.519951,13.347098,1,,0,,5555 S Bellevue (Berlin),
de:11000:900003103,,S Tiergarten (Berlin),,52.513959,13.336241,1,,0,,5555 S Tiergarten (Berlin),
de:11000:900003104,,U Turmstr. (Berlin),,52.525938,13.341417,1,,0,,5555 U Turmstr. (Berlin),
de:11000:900003201,,S+U Berlin Hauptbahnhof,,52.525605,13.369075,1,,0,,5555 S+U Berlin Hauptbahnhof,
de:11000:900003203,,Alt-Moabit/Rathenower Str. (Berlin),,52.523668,13.356952,1,,0,,5555 Alt-Moabit/Rathenower Str. (Berlin),
de:11000:900005201,,U Kurfürstenstr. (Berlin),,52.499778,13.362857,1,,0,,5555 U Kurfürstenstr. (Berlin),
de:11000:900005252,,U Mendelssohn-Bartholdy-Park (Berlin),,52.503185,13.374679,1,,0,,5555 U Mendelssohn-Bartholdy-Park (Berlin),
de:11000:900007102,,S+U Gesundbrunnen Bhf (Berlin),,52.548637,13.388372,1,,0,,5555 S+U Gesundbrunnen Bhf (Berlin),
de:11000:900007103,,U Voltastr. (Berlin),,52.54193,13.393157,1,,0,,5555 U Voltastr. (Berlin),
de:11000:900007104,,S Nordbahnhof (Berlin),,52.531672,13.388798,1,,0,,5555 S Nordbahnhof (Berlin),
de:11000:900007110,,U Bernauer Str. (Berlin),,52.537994,13.396231,1,,0,,5555 U Bernauer Str. (Berlin),
de:11000:900007160,,Grüntaler Str. (Berlin),,52.555358,13.390796,1,,0,,5656 Grüntaler Str. (Berlin),
de:11000:900008101,,S Humboldthain (Berlin),,52.544738,13.37873,1,,0,,5555 S Humboldthain (Berlin),
de:11000:900008102,,U Reinickendorfer Str. (Berlin),,52.539887,13.370382,1,,0,,5555 U Reinickendorfer Str. (Berlin),
de:11000:900009101,,U Amrumer Str. (Berlin),,52.542202,13.349534,1,,0,,5656 U Amrumer Str. (Berlin),
de:11000:900009102,,U Leopoldplatz (Berlin),,52.546493,13.359395,1,,0,,5656 U Leopoldplatz (Berlin),
de:11000:900009103,,U Seestr. (Berlin),,52.55047,13.351969,1,,0,,5656 U Seestr. (Berlin),
de:11000:900009104,,S+U Wedding (Berlin),,52.542732,13.36606,1,,0,,5555 S+U Wedding (Berlin),
de:11000:900009105,,Seestr./Amrumer Str. (Berlin),,52.546219,13.344055,1,,0,,5656 Seestr./Amrumer Str. (Berlin),
de:11000:900009201,,U Nauener Platz (Berlin),,52.551524,13.367365,1,,0,,5656 U Nauener Platz (Berlin),
de:11000:900009202,,U Osloer Str. (Berlin),,52.557107,13.373279,1,,0,,5656 U Osloer Str. (Berlin),
de:11000:900009203,,U Pankstr. (Berlin),,52.55228,13.381437,1,,0,,5656 U Pankstr. (Berlin),
de:11000:900009204,,"Berlin, Osloer Str./Prinzenallee",,52.555936,13.383663,1,,0,,"5656 Berlin, Osloer Str./Prinzenallee",
de:11000:900009206,,Drontheimer Str. (Berlin),,52.556529,13.377547,1,,0,,5656 Drontheimer Str. (Berlin),
de:11000:900010251,,"Berlin, Virchow-Klinikum",,52.543524,13.338811,1,,0,,"5656 Berlin, Virchow-Klinikum",
de:11000:900011101,,U Rehberge (Berlin),,52.55667,13.341013,1,,0,,5656 U Rehberge (Berlin),
de:11000:900011102,,U Afrikanische Str. (Berlin),,52.560862,13.333502,1,,0,,5656 U Afrikanische Str. (Berlin),
de:11000:900011201,,Louise-Schroeder-Platz (Berlin),,52.556982,13.365603,1,,0,,5656 Louise-Schroeder-Platz (Berlin),
de:11000:900011252,,Osram-Höfe (Berlin),,52.553696,13.358291,1,,0,,5656 Osram-Höfe (Berlin),
de:11000:900012101,,S Anhalter Bahnhof (Berlin),,52.504538,13.382077,1,,0,,5555 S Anhalter Bahnhof (Berlin),
de:11000:900012102,,U Kochstr./Checkpoint Charlie (Berlin),,52.506673,13.390863,1,,0,,5555 U Kochstr./Checkpoint Charlie (Berlin),
de:11000:900012103,,U Hallesches Tor (Berlin),,52.497774,13.39176,1,,0,,5555 U Hallesches Tor (Berlin),
de:11000:900013101,,U Moritzplatz (Berlin),,52.503739,13.410947,1,,0,,5555 U Moritzplatz (Berlin),
de:11000:900013102,,U Kottbusser Tor (Berlin),,52.499047,13.417748,1,,0,,5555 U Kottbusser Tor (Berlin),
de:11000:900013103,,U Prinzenstr. (Berlin),,52.498327,13.406551,1,,0,,5555 U Prinzenstr. (Berlin),
de:11000:900014101,,U Görlitzer Bahnhof (Berlin),,52.499145,13.427145,1,,0,,5555 U Görlitzer Bahnhof (Berlin),
de:11000:900014102,,U Schlesisches Tor (Berlin),,52.501147,13.441791,1,,0,,5555 U Schlesisches Tor (Berlin),
de:11000:900016101,,U Gneisenaustr. (Berlin),,52.491252,13.395382,1,,0,,5555 U Gneisenaustr. (Berlin),
de:11000:900016201,,U Schönleinstr. (Berlin),,52.493341,13.421912,1,,0,,5555 U Schönleinstr. (Berlin),
de:11000:900016202,,U Südstern (Berlin),,52.489219,13.407685,1,,0,,5555 U Südstern (Berlin),
de:11000:900017101,,U Mehringdamm (Berlin),,52.493567,13.38814,1,,0,,5555 U Mehringdamm (Berlin),
de:11000:900017102,,U Platz der Luftbrücke (Berlin),,52.48487,13.385927,1,,0,,5555 U Platz der Luftbrücke (Berlin),
de:11000:900017103,,U Gleisdreieck (Berlin),,52.499587,13.374293,1,,0,,5555 U Gleisdreieck (Berlin),
de:11000:900017104,,U Möckernbrücke (Berlin),,52.498944,13.383256,1,,0,,5555 U Möckernbrücke (Berlin),
de:11000:900018101,,U Jakob-Kaiser-Platz (Berlin),,52.536985,13.293661,1,,0,,5656 U Jakob-Kaiser-Platz (Berlin),
de:11000:900018102,,U Halemweg (Berlin),,52.536703,13.286578,1,,0,,5656 U Halemweg (Berlin),
de:11000:900019204,,U Mierendorffplatz (Berlin),,52.525978,13.305715,1,,0,,5555 U Mierendorffplatz (Berlin),
de:11000:900020201,,S+U Jungfernheide Bhf (Berlin),,52.530452,13.300124,1,,0,,5555 S+U Jungfernheide Bhf (Berlin),
de:11000:900022101,,U Sophie-Charlotte-Platz (Berlin),,52.51097,13.297463,1,,0,,5555 U Sophie-Charlotte-Platz (Berlin),
de:11000:900022201,,U Deutsche Oper (Berlin),,52.511827,13.30942,1,,0,,5555 U Deutsche Oper (Berlin),
de:11000:900022202,,U Richard-Wagner-Platz (Berlin),,52.517154,13.307221,1,,0,,5555 U Richard-Wagner-Platz (Berlin),
de:11000:900023101,,U Ernst-Reuter-Platz (Berlin),,52.511582,13.322581,1,,0,,5555 U Ernst-Reuter-Platz (Berlin),
de:11000:900023201,,S+U Zoologischer Garten Bhf (Berlin),,52.506921,13.332707,1,,0,,5555 S+U Zoologischer Garten Bhf (Berlin),
de:11000:900023202,,U Augsburger Str. (Berlin),,52.500442,13.336461,1,,0,,5555 U Augsburger Str. (Berlin),
de:11000:900023203,,U Kurfürstendamm (Berlin),,52.503763,13.331419,1,,0,,5555 U Kurfürstendamm (Berlin),
de:11000:900023301,,U Uhlandstr. (Berlin),,52.502742,13.326233,1,,0,,5555 U Uhlandstr. (Berlin),
de:11000:900023302,,U Adenauerplatz (Berlin),,52.500086,13.307348,1,,0,,5555 U Adenauerplatz (Berlin),
de:11000:900024101,,S Charlottenburg Bhf (Berlin),,52.504732,13.303862,1,,0,,5555 S Charlottenburg Bhf (Berlin),
de:11000:900024102,,S Westkreuz (Berlin),,52.501152,13.283036,1,,0,,5555 S Westkreuz (Berlin),
de:11000:900024106,,S Messe Nord/ICC (Berlin),,52.506622,13.282884,1,,0,,5555 S Messe Nord/ICC (Berlin),
de:11000:900024201,,U Bismarckstr. (Berlin),,52.511543,13.305335,1,,0,,5555 U Bismarckstr. (Berlin),
de:11000:900024202,,U Wilmersdorfer Str. (Berlin),,52.506415,13.306774,1,,0,,5555 U Wilmersdorfer Str. (Berlin),
de:11000:900024203,,S Savignyplatz (Berlin),,52.505223,13.319003,1,,0,,5555 S Savignyplatz (Berlin),
de:11000:900025202,,U Ruhleben (Berlin),,52.525587,13.241902,1,,0,,5656 U Ruhleben (Berlin),
de:11000:900025203,,U Olympia-Stadion (Berlin),,52.517048,13.2505,1,,0,,5656 U Olympia-Stadion (Berlin),
de:11000:900025321,,S Olympiastadion (Berlin),,52.511135,13.241111,1,,0,,5656 S Olympiastadion (Berlin),
de:11000:900025423,,S Messe Süd (Berlin),,52.498771,13.27045,1,,0,,5656 S Messe Süd (Berlin),
de:11000:900025424,,S Pichelsberg (Berlin),,52.509927,13.228253,1,,0,,5656 S Pichelsberg (Berlin),
de:11000:900026101,,U Neu-Westend (Berlin),,52.516409,13.25991,1,,0,,5656 U Neu-Westend (Berlin),
de:11000:900026105,,S Heerstr. (Berlin),,52.508499,13.258442,1,,0,,5656 S Heerstr. (Berlin),
de:11000:900026201,,U Theodor-Heuss-Platz (Berlin),,52.509798,13.272977,1,,0,,5656 U Theodor-Heuss-Platz (Berlin),
de:11000:900026202,,U Kaiserdamm (Berlin),,52.509985,13.281695,1,,0,,5555 U Kaiserdamm (Berlin),
de:11000:900026207,,S Westend (Berlin),,52.51861,13.284237,1,,0,,5555 S Westend (Berlin),
de:11000:900029101,,S Spandau Bhf (Berlin),,52.534798,13.197477,1,,0,,5656 S Spandau Bhf (Berlin),
de:11000:900029301,,U Altstadt Spandau (Berlin),,52.539161,13.206763,1,,0,,5656 U Altstadt Spandau (Berlin),
de:11000:900029302,,S+U Rathaus Spandau (Berlin),,52.535641,13.199837,1,,0,,5656 S+U Rathaus Spandau (Berlin),
de:11000:900030202,,S Stresow (Berlin),,52.53197,13.209099,1,,0,,5656 S Stresow (Berlin),
de:11000:900033101,,U Zitadelle (Berlin),,52.537522,13.217625,1,,0,,5656 U Zitadelle (Berlin),
de:11000:900034101,,U Paulsternstr. (Berlin),,52.538127,13.248065,1,,0,,5656 U Paulsternstr. (Berlin),
de:11000:900034102,,U Haselhorst (Berlin),,52.538687,13.231946,1,,0,,5656 U Haselhorst (Berlin),
de:11000:900035101,,U Siemensdamm (Berlin),,52.537026,13.273323,1,,0,,5656 U Siemensdamm (Berlin),
de:11000:900036101,,U Rohrdamm (Berlin),,52.536904,13.26287,1,,0,,5656 U Rohrdamm (Berlin),
de:11000:900037168,,"Berlin, Albrechtshof Bhf",,52.549337,13.129157,1,,0,,"5656 Berlin, Albrechtshof Bhf",
de:11000:900040101,,S Halensee (Berlin),,52.496698,13.290151,1,,0,,5555 S Halensee (Berlin),
de:11000:900041101,,U Fehrbelliner Platz (Berlin),,52.490193,13.314508,1,,0,,5555 U Fehrbelliner Platz (Berlin),
de:11000:900041102,,U Blissestr. (Berlin),,52.486478,13.320545,1,,0,,5555 U Blissestr. (Berlin),
de:11000:900041201,,U Konstanzer Str. (Berlin),,52.493567,13.310084,1,,0,,5555 U Konstanzer Str. (Berlin),
de:11000:900042101,,U Spichernstr. (Berlin),,52.496582,13.330613,1,,0,,5555 U Spichernstr. (Berlin),
de:11000:900043101,,U Hohenzollernplatz (Berlin),,52.493833,13.324051,1,,0,,5555 U Hohenzollernplatz (Berlin),
de:11000:900043201,,U Güntzelstr. (Berlin),,52.491992,13.33121,1,,0,,5555 U Güntzelstr. (Berlin),
de:11000:900044101,,S Hohenzollerndamm (Berlin),,52.488337,13.300714,1,,0,,5555 S Hohenzollerndamm (Berlin),
de:11000:900044201,,U Berliner Str. (Berlin),,52.487047,13.331355,1,,0,,5555 U Berliner Str. (Berlin),
de:11000:900044202,,S+U Bundesplatz (Berlin),,52.477667,13.328626,1,,0,,5555 S+U Bundesplatz (Berlin),
de:11000:900045101,,U Rüdesheimer Platz (Berlin),,52.472462,13.314387,1,,0,,5656 U Rüdesheimer Platz (Berlin),
de:11000:900045102,,S+U Heidelberger Platz (Berlin),,52.480124,13.31229,1,,0,,5555 S+U Heidelberger Platz (Berlin),
de:11000:900048101,,S Grunewald (Berlin),,52.48868,13.261944,1,,0,,5656 S Grunewald (Berlin),
de:11000:900049201,,S Zehlendorf (Berlin),,52.431209,13.259227,1,,0,,5656 S Zehlendorf (Berlin),
de:11000:900049202,,S Sundgauer Str. (Berlin),,52.436187,13.273501,1,,0,,5656 S Sundgauer Str. (Berlin),
de:11000:900050282,,U Onkel Toms Hütte (Berlin),,52.450146,13.254016,1,,0,,5656 U Onkel Toms Hütte (Berlin),
de:11000:900050301,,S Mexikoplatz (Berlin),,52.437166,13.23206,1,,0,,5656 S Mexikoplatz (Berlin),
de:11000:900050355,,S Schlachtensee (Berlin),,52.439806,13.213986,1,,0,,5656 S Schlachtensee (Berlin),
de:11000:900051201,,U Freie Universität (Thielplatz) (Berlin),,52.451,13.281651,1,,0,,5656 U Freie Universität (Thielplatz) (Berlin),
de:11000:900051202,,U Breitenbachplatz (Berlin),,52.467342,13.309276,1,,0,,5656 U Breitenbachplatz (Berlin),
de:11000:900051301,,U Oskar-Helene-Heim (Berlin),,52.450419,13.26891,1,,0,,5656 U Oskar-Helene-Heim (Berlin),
de:11000:900051302,,U Podbielskiallee (Berlin),,52.464172,13.295203,1,,0,,5656 U Podbielskiallee (Berlin),
de:11000:900051303,,U Dahlem-Dorf (Berlin),,52.457695,13.290011,1,,0,,5656 U Dahlem-Dorf (Berlin),
de:11000:900052201,,S Nikolassee (Berlin),,52.43121,13.193298,1,,0,,5656 S Nikolassee (Berlin),
de:11000:900053301,,S Wannsee Bhf (Berlin),,52.421725,13.178932,1,,0,,5656 S Wannsee Bhf (Berlin),
de:11000:900054101,,U Rathaus Schöneberg (Berlin),,52.483332,13.341989,1,,0,,5555 U Rathaus Schöneberg (Berlin),
de:11000:900054102,,U Kleistpark (Berlin),,52.490686,13.360543,1,,0,,5555 U Kleistpark (Berlin),
de:11000:900054103,,U Eisenacher Str. (Berlin),,52.489477,13.350284,1,,0,,5555 U Eisenacher Str. (Berlin),
de:11000:900054104,,S Schöneberg (Berlin),,52.479811,13.352848,1,,0,,5555 S Schöneberg (Berlin),
de:11000:900054105,,S+U Innsbrucker Platz (Berlin),,52.4781,13.342875,1,,0,,5555 S+U Innsbrucker Platz (Berlin),
de:11000:900055101,,U Viktoria-Luise-Platz (Berlin),,52.496169,13.343264,1,,0,,5555 U Viktoria-Luise-Platz (Berlin),
de:11000:900055102,,U Bayerischer Platz (Berlin),,52.488654,13.340237,1,,0,,5555 U Bayerischer Platz (Berlin),
de:11000:900056101,,U Wittenbergplatz (Berlin),,52.502109,13.342561,1,,0,,5555 U Wittenbergplatz (Berlin),
de:11000:900056102,,U Nollendorfplatz (Berlin),,52.499644,13.353825,1,,0,,5555 U Nollendorfplatz (Berlin),
de:11000:900056104,,U Bülowstr. (Berlin),,52.497627,13.362456,1,,0,,5555 U Bülowstr. (Berlin),
de:11000:900057102,,S+U Yorckstr. (Großgörschenstr.) (Berlin),,52.492345,13.367986,1,,0,,5555 S+U Yorckstr. (Großgörschenstr.) (Berlin),
de:11000:900058101,,S Südkreuz Bhf (Berlin),,52.475502,13.365552,1,,0,,5555 S Südkreuz Bhf (Berlin),
de:11000:900058102,,S Priesterweg (Berlin),,52.459239,13.356028,1,,0,,5656 S Priesterweg (Berlin),
de:11000:900058103,,S+U Yorckstr. (Berlin),,52.492358,13.372212,1,,0,,5555 S+U Yorckstr. (Berlin),
de:11000:900060101,,S Friedenau (Berlin),,52.470002,13.340598,1,,0,,5656 S Friedenau (Berlin),
de:11000:900061101,,U Walther-Schreiber-Platz (Berlin),,52.464998,13.328409,1,,0,,5656 U Walther-Schreiber-Platz (Berlin),
de:11000:900061102,,U Friedrich-Wilhelm-Platz (Berlin),,52.471439,13.328676,1,,0,,5656 U Friedrich-Wilhelm-Platz (Berlin),
de:11000:900062202,,S+U Rathaus Steglitz (Berlin),,52.455066,13.322152,1,,0,,5656 S+U Rathaus Steglitz (Berlin),
de:11000:900062203,,U Schloßstr. (Berlin),,52.461183,13.324836,1,,0,,5656 U Schloßstr. (Berlin),
de:11000:900063101,,S Feuerbachstr. (Berlin),,52.463578,13.332412,1,,0,,5656 S Feuerbachstr. (Berlin),
de:11000:900063452,,S Südende (Berlin),,52.448899,13.354077,1,,0,,5656 S Südende (Berlin),
de:11000:900064201,,S Lichterfelde Süd (Berlin),,52.409956,13.308662,1,,0,,5656 S Lichterfelde Süd (Berlin),
de:11000:900064256,,S Osdorfer Str. (Berlin),,52.418373,13.313865,1,,0,,5656 S Osdorfer Str. (Berlin),
de:11000:900064301,,S Lichterfelde Ost Bhf (Berlin),,52.429294,13.327749,1,,0,,5656 S Lichterfelde Ost Bhf (Berlin),
de:11000:900066101,,S Lichterfelde West (Berlin),,52.443512,13.294141,1,,0,,5656 S Lichterfelde West (Berlin),
de:11000:900066102,,S Botanischer Garten (Berlin),,52.447552,13.306041,1,,0,,5656 S Botanischer Garten (Berlin),
de:11000:900067221,,S Lankwitz (Berlin),,52.439034,13.34276,1,,0,,5656 S Lankwitz (Berlin),
de:11000:900068101,,U Paradestr. (Berlin),,52.478142,13.386725,1,,0,,5555 U Paradestr. (Berlin),
de:11000:900068201,,S+U Tempelhof (Berlin),,52.470574,13.3859,1,,0,,5555 S+U Tempelhof (Berlin),
de:11000:900068202,,U Alt-Tempelhof (Berlin),,52.46593,13.385796,1,,0,,5656 U Alt-Tempelhof (Berlin),
de:11000:900068301,,S Attilastr. (Berlin),,52.447298,13.361177,1,,0,,5656 S Attilastr. (Berlin),
de:11000:900068302,,U Kaiserin-Augusta-Str. (Berlin),,52.460512,13.384905,1,,0,,5656 U Kaiserin-Augusta-Str. (Berlin),
de:11000:900069271,,U Ullsteinstr. (Berlin),,52.45345,13.384771,1,,0,,5656 U Ullsteinstr. (Berlin),
de:11000:900070101,,U Westphalweg (Berlin),,52.445646,13.385744,1,,0,,5656 U Westphalweg (Berlin),
de:11000:900070301,,U Alt-Mariendorf (Berlin),,52.438609,13.38792,1,,0,,5656 U Alt-Mariendorf (Berlin),
de:11000:900072101,,S Buckower Chaussee (Berlin),,52.411035,13.38247,1,,0,,5656 S Buckower Chaussee (Berlin),
de:11000:900073101,,S Marienfelde (Berlin),,52.423816,13.375022,1,,0,,5656 S Marienfelde (Berlin),
de:11000:900074201,,S Lichtenrade (Berlin),,52.38668,13.396642,1,,0,,5656 S Lichtenrade (Berlin),
de:11000:900074202,,S Schichauweg (Berlin),,52.39856,13.389437,1,,0,,5656 S Schichauweg (Berlin),
de:11000:900077106,,S Sonnenallee (Berlin),,52.473843,13.455986,1,,0,,5555 S Sonnenallee (Berlin),
de:11000:900077155,,S Köllnische Heide (Berlin),,52.469168,13.467529,1,,0,,5656 S Köllnische Heide (Berlin),
de:11000:900078101,,U Hermannplatz (Berlin),,52.486957,13.42472,1,,0,,5555 U Hermannplatz (Berlin),
de:11000:900078102,,U Rathaus Neukölln (Berlin),,52.481146,13.434807,1,,0,,5555 U Rathaus Neukölln (Berlin),
de:11000:900078103,,U Karl-Marx-Str. (Berlin),,52.476429,13.439805,1,,0,,5555 U Karl-Marx-Str. (Berlin),
de:11000:900078201,,S+U Neukölln (Berlin),,52.469282,13.443692,1,,0,,5555 S+U Neukölln (Berlin),
de:11000:900079201,,U Leinestr. (Berlin),,52.472874,13.4284,1,,0,,5555 U Leinestr. (Berlin),
de:11000:900079202,,U Boddinstr. (Berlin),,52.479745,13.425782,1,,0,,5555 U Boddinstr. (Berlin),
de:11000:900079221,,S+U Hermannstr. (Berlin),,52.467181,13.431704,1,,0,,5555 S+U Hermannstr. (Berlin),
de:11000:900080201,,U Blaschkoallee (Berlin),,52.452743,13.448976,1,,0,,5656 U Blaschkoallee (Berlin),
de:11000:900080202,,U Grenzallee (Berlin),,52.463516,13.444828,1,,0,,5656 U Grenzallee (Berlin),
de:11000:900080401,,U Parchimer Allee (Berlin),,52.445299,13.449967,1,,0,,5656 U Parchimer Allee (Berlin),
de:11000:900080402,,U Britz-Süd (Berlin),,52.437076,13.447668,1,,0,,5656 U Britz-Süd (Berlin),
de:11000:900082201,,U Lipschitzallee (Berlin),,52.424645,13.463109,1,,0,,5656 U Lipschitzallee (Berlin),
de:11000:900082202,,U Johannisthaler Chaussee (Berlin),,52.429253,13.453851,1,,0,,5656 U Johannisthaler Chaussee (Berlin),
de:11000:900083101,,U Zwickauer Damm (Berlin),,52.423032,13.484371,1,,0,,5656 U Zwickauer Damm (Berlin),
de:11000:900083102,,U Wutzkyallee (Berlin),,52.423152,13.47482,1,,0,,5656 U Wutzkyallee (Berlin),
de:11000:900083201,,U Rudow (Berlin),,52.415714,13.496527,1,,0,,5656 U Rudow (Berlin),
de:11000:900084101,,S Wilhelmsruh (Berlin),,52.581389,13.362938,1,,0,,5656 S Wilhelmsruh (Berlin),
de:11000:900085104,,U Paracelsus-Bad (Berlin),,52.574432,13.347301,1,,0,,5656 U Paracelsus-Bad (Berlin),
de:11000:900085105,,S Alt-Reinickendorf (Berlin),,52.577969,13.349747,1,,0,,5656 S Alt-Reinickendorf (Berlin),
de:11000:900085201,,S Schönholz (Berlin),,52.571901,13.380242,1,,0,,5656 S Schönholz (Berlin),
de:11000:900085202,,U Franz-Neumann-Platz (Berlin),,52.563854,13.364283,1,,0,,5656 U Franz-Neumann-Platz (Berlin),
de:11000:900085203,,U Residenzstr. (Berlin),,52.570843,13.360635,1,,0,,5656 U Residenzstr. (Berlin),
de:11000:900086102,,U Kurt-Schumacher-Platz (Berlin),,52.563483,13.327328,1,,0,,5656 U Kurt-Schumacher-Platz (Berlin),
de:11000:900086160,,U Lindauer Allee (Berlin),,52.575386,13.339036,1,,0,,5656 U Lindauer Allee (Berlin),
de:11000:900089303,,S Tegel (Berlin),,52.588805,13.288695,1,,0,,5656 S Tegel (Berlin),
de:11000:900091203,,S Heiligensee (Berlin),,52.625148,13.228667,1,,0,,5656 S Heiligensee (Berlin),
de:11000:900091205,,S Schulzendorf (Berlin),,52.613513,13.24563,1,,0,,5656 S Schulzendorf (Berlin),
de:11000:900092201,,S Frohnau (Berlin),,52.632958,13.289564,1,,0,,5656 S Frohnau (Berlin),
de:11000:900093201,,S Hermsdorf (Berlin),,52.618165,13.306804,1,,0,,5656 S Hermsdorf (Berlin),
de:11000:900094101,,S Waidmannslust (Berlin),,52.606814,13.320549,1,,0,,5656 S Waidmannslust (Berlin),
de:11000:900096101,,S+U Wittenau (Berlin),,52.596392,13.335481,1,,0,,5656 S+U Wittenau (Berlin),
de:11000:900096405,,S Eichborndamm (Berlin),,52.577545,13.315583,1,,0,,5656 S Eichborndamm (Berlin),
de:11000:900096410,,U Rathaus Reinickendorf (Berlin),,52.588218,13.325568,1,,0,,5656 U Rathaus Reinickendorf (Berlin),
de:11000:900096458,,S+U Karl-Bonhoeffer-Nervenklinik (Berlin),,52.578169,13.332921,1,,0,,5656 S+U Karl-Bonhoeffer-Nervenklinik (Berlin),
de:11000:900100001,,S+U Friedrichstr. Bhf (Berlin),,52.520521,13.38645,1,,0,,5555 S+U Friedrichstr. Bhf (Berlin),
de:11000:900100002,,S Hackescher Markt (Berlin),,52.522607,13.402358,1,,0,,5555 S Hackescher Markt (Berlin),
de:11000:900100003,,S+U Alexanderplatz Bhf (Berlin),,52.521512,13.411267,1,,0,,5555 S+U Alexanderplatz Bhf (Berlin),
de:11000:900100004,,S+U Jannowitzbrücke (Berlin),,52.5155,13.418027,1,,0,,5555 S+U Jannowitzbrücke (Berlin),
de:11000:900100007,,S Oranienburger Str. (Berlin),,52.525161,13.393068,1,,0,,5555 S Oranienburger Str. (Berlin),
de:11000:900100008,,U Heinrich-Heine-Str. (Berlin),,52.510558,13.416124,1,,0,,5555 U Heinrich-Heine-Str. (Berlin),
de:11000:900100009,,U Naturkundemuseum (Berlin),,52.531254,13.382415,1,,0,,5555 U Naturkundemuseum (Berlin),
de:11000:900100010,,U Mohrenstr. (Berlin),,52.511519,13.383798,1,,0,,5555 U Mohrenstr. (Berlin),
de:11000:900100011,,U Stadtmitte (Berlin),,52.511495,13.389719,1,,0,,5555 U Stadtmitte (Berlin),
de:11000:900100012,,U Hausvogteiplatz (Berlin),,52.513361,13.395346,1,,0,,5555 U Hausvogteiplatz (Berlin),
de:11000:900100013,,U Spittelmarkt (Berlin),,52.511411,13.402031,1,,0,,5555 U Spittelmarkt (Berlin),
de:11000:900100014,,U Märkisches Museum (Berlin),,52.512007,13.408767,1,,0,,5555 U Märkisches Museum (Berlin),
de:11000:900100015,,U Klosterstr. (Berlin),,52.517229,13.412455,1,,0,,5555 U Klosterstr. (Berlin),
de:11000:900100016,,U Rosa-Luxemburg-Platz (Berlin),,52.528191,13.410405,1,,0,,5555 U Rosa-Luxemburg-Platz (Berlin),
de:11000:900100017,,U Schillingstr. (Berlin),,52.520316,13.421895,1,,0,,5555 U Schillingstr. (Berlin),
de:11000:900100019,,U Oranienburger Tor (Berlin),,52.525163,13.387587,1,,0,,5555 U Oranienburger Tor (Berlin),
de:11000:900100020,,S+U Potsdamer Platz Bhf (Berlin),,52.509358,13.376547,1,,0,,5555 S+U Potsdamer Platz Bhf (Berlin),
de:11000:900100023,,U Rosenthaler Platz (Berlin),,52.529781,13.401393,1,,0,,5555 U Rosenthaler Platz (Berlin),
de:11000:900100025,,S+U Brandenburger Tor (Berlin),,52.516511,13.381937,1,,0,,5555 S+U Brandenburger Tor (Berlin),
de:11000:900100040,,Mollstr./Otto-Braun-Str. (Berlin),,52.525183,13.419945,1,,0,,5555 Mollstr./Otto-Braun-Str. (Berlin),
de:11000:900100045,,U Rotes Rathaus (Berlin),,52.518462,13.407061,1,,0,,5555 U Rotes Rathaus (Berlin),
de:11000:900100051,,U Weinmeisterstr. (Berlin),,52.525376,13.405305,1,,0,,5555 U Weinmeisterstr. (Berlin),
de:11000:900100501,,U Schwartzkopffstr. (Berlin),,52.535397,13.377033,1,,0,,5555 U Schwartzkopffstr. (Berlin),
de:11000:900100503,,"Berlin, Invalidenpark",,52.528765,13.376929,1,,0,,"5555 Berlin, Invalidenpark",
de:11000:900100506,,Hannoversche Str. (Berlin),,52.527295,13.387389,1,,0,,5555 Hannoversche Str. (Berlin),
de:11000:900100513,,U Unter den Linden (Berlin),,52.516996,13.388876,1,,0,,5555 U Unter den Linden (Berlin),
de:11000:900100515,,Spandauer Str./Marienkirche (Berlin),,52.520025,13.404825,1,,0,,5555 Spandauer Str./Marienkirche (Berlin),
de:11000:900100537,,U Museumsinsel (Berlin),,52.518086,13.400394,1,,0,,5555 U Museumsinsel (Berlin),
de:11000:900110001,,S+U Schönhauser Allee (Berlin),,52.549336,13.415138,1,,0,,5555 S+U Schönhauser Allee (Berlin),
de:11000:900110002,,S Prenzlauer Allee (Berlin),,52.544802,13.427419,1,,0,,5555 S Prenzlauer Allee (Berlin),
de:11000:900110003,,S Greifswalder Str. (Berlin),,52.540724,13.438356,1,,0,,5555 S Greifswalder Str. (Berlin),
de:11000:900110004,,S Landsberger Allee (Berlin),,52.528772,13.455944,1,,0,,5555 S Landsberger Allee (Berlin),
de:11000:900110005,,U Senefelderplatz (Berlin),,52.532622,13.412625,1,,0,,5555 U Senefelderplatz (Berlin),
de:11000:900110006,,U Eberswalder Str. (Berlin),,52.541085,13.41216,1,,0,,5555 U Eberswalder Str. (Berlin),
de:11000:900110007,,"Berlin, Schönhauser Allee/Bornholmer Str.",,52.553762,13.414614,1,,0,,"5656 Berlin, Schönhauser Allee/Bornholmer Str.",
de:11000:900110008,,Schönfließer Str. (Berlin),,52.55404,13.408728,1,,0,,5656 Schönfließer Str. (Berlin),
de:11000:900110010,,Björnsonstr. (Berlin),,52.554448,13.403138,1,,0,,5656 Björnsonstr. (Berlin),
de:11000:900110011,,S Bornholmer Str. (Berlin),,52.554763,13.397841,1,,0,,5656 S Bornholmer Str. (Berlin),
de:11000:900110012,,S Storkower Str. (Berlin),,52.523868,13.464704,1,,0,,5555 S Storkower Str. (Berlin),
de:11000:900110013,,Prenzlauer Allee/Ostseestr. (Berlin),,52.551222,13.430178,1,,0,,5656 Prenzlauer Allee/Ostseestr. (Berlin),
de:11000:900110015,,Stahlheimer Str./Wisbyer Str. (Berlin),,52.552668,13.424239,1,,0,,5656 Stahlheimer Str./Wisbyer Str. (Berlin),
de:11000:900110016,,"Berlin, Greifswalder Str./Ostseestr.",,52.545474,13.444615,1,,0,,"5656 Berlin, Greifswalder Str./Ostseestr.",
de:11000:900110017,,Prenzlauer Allee/Danziger Str. (Berlin),,52.539179,13.424244,1,,0,,5555 Prenzlauer Allee/Danziger Str. (Berlin),
de:11000:900110018,,Friedrich-Ludwig-Jahn-Sportpark (Berlin),,52.540873,13.4058,1,,0,,5555 Friedrich-Ludwig-Jahn-Sportpark (Berlin),
de:11000:900110019,,"Berlin, Am Friedrichshain",,52.528015,13.425135,1,,0,,"5555 Berlin, Am Friedrichshain",
de:11000:900110020,,"Berlin, Greifswalder Str./Danziger Str.",,52.536,13.433466,1,,0,,"5555 Berlin, Greifswalder Str./Danziger Str.",
de:11000:900110021,,Kniprodestr./Danziger Str. (Berlin),,52.532112,13.441523,1,,0,,5555 Kniprodestr./Danziger Str. (Berlin),
de:11000:900110022,,Mollstr./Prenzlauer Allee (Berlin),,52.526867,13.415962,1,,0,,5555 Mollstr./Prenzlauer Allee (Berlin),
de:11000:900110025,,"Berlin, Arnswalder Platz",,52.534094,13.437388,1,,0,,"5555 Berlin, Arnswalder Platz",
de:11000:900110506,,Prenzlauer Allee/Metzer Str. (Berlin),,52.531032,13.419383,1,,0,,5555 Prenzlauer Allee/Metzer Str. (Berlin),
de:11000:900110507,,Knaackstr. (Berlin),,52.533226,13.420721,1,,0,,5555 Knaackstr. (Berlin),
de:11000:900110508,,Marienburger Str. (Berlin),,52.535538,13.422093,1,,0,,5555 Marienburger Str. (Berlin),
de:11000:900110509,,Erich-Weinert-Str. (Berlin),,52.5478,13.42866,1,,0,,5656 Erich-Weinert-Str. (Berlin),
de:11000:900110510,,Fröbelstr. (Berlin),,52.542043,13.425914,1,,0,,5555 Fröbelstr. (Berlin),
de:11000:900110511,,Husemannstr. (Berlin),,52.540036,13.418715,1,,0,,5555 Husemannstr. (Berlin),
de:11000:900110512,,Winsstr. (Berlin),,52.537614,13.428807,1,,0,,5555 Winsstr. (Berlin),
de:11000:900110515,,Thomas-Mann-Str. (Berlin),,52.543374,13.441436,1,,0,,5656 Thomas-Mann-Str. (Berlin),
de:11000:900110521,,Hufelandstr. (Berlin),,52.532518,13.428789,1,,0,,5555 Hufelandstr. (Berlin),
de:11000:900110523,,Paul-Heyse-Str. (Berlin),,52.529198,13.44464,1,,0,,5555 Paul-Heyse-Str. (Berlin),
de:11000:900120001,,S+U Frankfurter Allee (Berlin),,52.51358,13.475848,1,,0,,5555 S+U Frankfurter Allee (Berlin),
de:11000:900120003,,S Ostkreuz Bhf (Berlin),,52.503113,13.469221,1,,0,,5555 S Ostkreuz Bhf (Berlin),
de:11000:900120004,,S+U Warschauer Str. (Berlin),,52.505765,13.449159,1,,0,,5555 S+U Warschauer Str. (Berlin),
de:11000:900120005,,S Ostbahnhof (Berlin),,52.510331,13.435086,1,,0,,5555 S Ostbahnhof (Berlin),
de:11000:900120006,,U Strausberger Platz (Berlin),,52.518025,13.432208,1,,0,,5555 U Strausberger Platz (Berlin),
de:11000:900120008,,U Frankfurter Tor (Berlin),,52.515772,13.454085,1,,0,,5555 U Frankfurter Tor (Berlin),
de:11000:900120009,,U Samariterstr. (Berlin),,52.514662,13.465347,1,,0,,5555 U Samariterstr. (Berlin),
de:11000:900120014,,Grünberger Str./Warschauer Str. (Berlin),,52.512405,13.452397,1,,0,,5555 Grünberger Str./Warschauer Str. (Berlin),
de:11000:900120016,,Landsberger Allee/Petersburger Str. (Berlin),,52.526044,13.446777,1,,0,,5555 Landsberger Allee/Petersburger Str. (Berlin),
de:11000:900120017,,Virchowstr. (Berlin),,52.525175,13.442166,1,,0,,5555 Virchowstr. (Berlin),
de:11000:900120019,,Platz der Vereinten Nationen (Berlin),,52.523254,13.433056,1,,0,,5555 Platz der Vereinten Nationen (Berlin),
de:11000:900120021,,"Berlin, Revaler Str.",,52.509221,13.451099,1,,0,,"5555 Berlin, Revaler Str.",
de:11000:900120025,,U Weberwiese (Berlin),,52.516848,13.443278,1,,0,,5555 U Weberwiese (Berlin),
de:11000:900120511,,Büschingstr. (Berlin),,52.523127,13.427217,1,,0,,5555 Büschingstr. (Berlin),
de:11000:900120513,,Klinikum im Friedrichshain (Berlin),,52.524147,13.440202,1,,0,,5555 Klinikum im Friedrichshain (Berlin),
de:11000:900120515,,Straßmannstr. (Berlin),,52.522741,13.450145,1,,0,,5555 Straßmannstr. (Berlin),
de:11000:900120516,,Bersarinplatz (Berlin),,52.519341,13.452567,1,,0,,5555 Bersarinplatz (Berlin),
de:11000:900130001,,S Pankow-Heinersdorf (Berlin),,52.577603,13.42909,1,,0,,5656 S Pankow-Heinersdorf (Berlin),
de:11000:900130002,,S+U Pankow (Berlin),,52.567281,13.412279,1,,0,,5656 S+U Pankow (Berlin),
de:11000:900130003,,S Wollankstr. (Berlin),,52.564974,13.39315,1,,0,,5656 S Wollankstr. (Berlin),
de:11000:900130011,,U Vinetastr. (Berlin),,52.559517,13.41377,1,,0,,5656 U Vinetastr. (Berlin),
de:11000:900130013,,Pankow Kirche (Berlin),,52.570767,13.410134,1,,0,,5656 Pankow Kirche (Berlin),
de:11000:900130016,,Galenusstr. (Berlin),,52.582049,13.428585,1,,0,,5656 Galenusstr. (Berlin),
de:11000:900130017,,Pankower Str. (Berlin),,52.585011,13.428947,1,,0,,5656 Pankower Str. (Berlin),
de:11000:900130501,,"Berlin, Rathaus Pankow",,52.569381,13.403453,1,,0,,"5656 Berlin, Rathaus Pankow",
de:11000:900130502,,Stiftsweg (Berlin),,52.572406,13.415114,1,,0,,5656 Stiftsweg (Berlin),
de:11000:900130512,,Masurenstr. (Berlin),,52.563568,13.413163,1,,0,,5656 Masurenstr. (Berlin),
de:11000:900131004,,"Berlin, Bürgerpark Pankow",,52.571197,13.398141,1,,0,,"5656 Berlin, Bürgerpark Pankow",
de:11000:900131005,,"Berlin, Pastor-Niemöller-Platz",,52.579628,13.397303,1,,0,,"5656 Berlin, Pastor-Niemöller-Platz",
de:11000:900132010,,"Berlin, Hauptstr./Friedrich-Engels-Str.",,52.597184,13.375487,1,,0,,"5656 Berlin, Hauptstr./Friedrich-Engels-Str.",
de:11000:900132500,,Wiesenwinkel (Berlin),,52.594432,13.38098,1,,0,,5656 Wiesenwinkel (Berlin),
de:11000:900132501,,Angerweg (Berlin),,52.591756,13.383936,1,,0,,5656 Angerweg (Berlin),
de:11000:900134011,,Französisch Buchholz Kirche (Berlin),,52.606776,13.433538,1,,0,,5656 Französisch Buchholz Kirche (Berlin),
de:11000:900134500,,"Berlin, Blankenfelder Str.",,52.601732,13.431514,1,,0,,"5656 Berlin, Blankenfelder Str.",
de:11000:900134501,,Rosenthaler Str. (Berlin),,52.595862,13.433093,1,,0,,5656 Rosenthaler Str. (Berlin),
de:11000:900134502,,Marienstr./Pasewalker Str. (Berlin),,52.592547,13.431495,1,,0,,5656 Marienstr./Pasewalker Str. (Berlin),
de:11000:900134503,,Pasewalker Str./Blankenburger Weg (Berlin),,52.58954,13.430452,1,,0,,5656 Pasewalker Str./Blankenburger Weg (Berlin),
de:11000:900134509,,"Berlin, Hugenottenplatz",,52.606228,13.420072,1,,0,,"5656 Berlin, Hugenottenplatz",
de:11000:900135001,,S Buch (Berlin),,52.636297,13.492369,1,,0,,5656 S Buch (Berlin),
de:11000:900140005,,"Berlin, Albertinenstr.",,52.549788,13.457775,1,,0,,"5656 Berlin, Albertinenstr.",
de:11000:900140006,,Weißer See (Berlin),,52.551886,13.465482,1,,0,,5656 Weißer See (Berlin),
de:11000:900140007,,Hansastr./Buschallee (Berlin),,52.553171,13.480697,1,,0,,5656 Hansastr./Buschallee (Berlin),
de:11000:900140011,,Antonplatz (Berlin),,52.548283,13.450855,1,,0,,5656 Antonplatz (Berlin),
de:11000:900140012,,Falkenberger Str./Berliner Allee (Berlin),,52.554707,13.467743,1,,0,,5656 Falkenberger Str./Berliner Allee (Berlin),
de:11000:900140014,,Giersstr. (Berlin),,52.554578,13.482425,1,,0,,5656 Giersstr. (Berlin),
de:11000:900140517,,Stadion Buschallee/Hansastr. (Berlin),,52.556906,13.485984,1,,0,,5656 Stadion Buschallee/Hansastr. (Berlin),
de:11000:900140518,,"Berlin, Sulzfelder Str.",,52.553311,13.475769,1,,0,,"5656 Berlin, Sulzfelder Str.",
de:11000:900140519,,Buschallee (Berlin),,52.553672,13.469346,1,,0,,5656 Buschallee (Berlin),
de:11000:900141001,,Heinersdorf (Berlin),,52.572564,13.437068,1,,0,,5656 Heinersdorf (Berlin),
de:11000:900141504,,Am Wasserturm (Berlin),,52.565118,13.435969,1,,0,,5656 Am Wasserturm (Berlin),
de:11000:900141506,,Am Steinberg (Berlin),,52.558383,13.433301,1,,0,,5656 Am Steinberg (Berlin),
de:11000:900141507,,Prenzlauer Promenade/Am Steinberg (Berlin),,52.556662,13.429913,1,,0,,5656 Prenzlauer Promenade/Am Steinberg (Berlin),
de:11000:900142001,,S Blankenburg (Berlin),,52.591069,13.442972,1,,0,,5656 S Blankenburg (Berlin),
de:11000:900143001,,S Karow Bhf (Berlin),,52.615755,13.470081,1,,0,,5656 S Karow Bhf (Berlin),
de:11000:900150002,,Hansastr./Malchower Weg (Berlin),,52.561052,13.500679,1,,0,,5656 Hansastr./Malchower Weg (Berlin),
de:11000:900150005,,Rhinstr./Plauener Str. (Berlin),,52.539553,13.514199,1,,0,,5656 Rhinstr./Plauener Str. (Berlin),
de:11000:900150008,,Rhinstr./Gärtnerstr. (Berlin),,52.546395,13.510528,1,,0,,5656 Rhinstr./Gärtnerstr. (Berlin),
de:11000:900150010,,Degnerstr./Suermondtstr. (Berlin),,52.549756,13.498524,1,,0,,5656 Degnerstr./Suermondtstr. (Berlin),
de:11000:900150011,,Hohenschönhauser Str. (Berlin),,52.535851,13.472862,1,,0,,5656 Hohenschönhauser Str. (Berlin),
de:11000:900150020,,Alt-Hohenschönhausen (Berlin),,52.548868,13.50476,1,,0,,5656 Alt-Hohenschönhausen (Berlin),
de:11000:900150500,,Anna-Ebermann-Str. (Berlin),,52.554975,13.51212,1,,0,,5656 Anna-Ebermann-Str. (Berlin),
de:11000:900150501,,Feldtmannstr. (Berlin),,52.559826,13.495328,1,,0,,5656 Feldtmannstr. (Berlin),
de:11000:900150504,,Gehrenseestr. (Berlin),,52.550015,13.508559,1,,0,,5656 Gehrenseestr. (Berlin),
de:11000:900150509,,Altenhofer Str. (Berlin),,52.534933,13.480171,1,,0,,5656 Altenhofer Str. (Berlin),
de:11000:900150514,,Am Faulen See (Berlin),,52.550566,13.494866,1,,0,,5656 Am Faulen See (Berlin),
de:11000:900150515,,Orankestrand (Berlin),,52.552286,13.486049,1,,0,,5656 Orankestrand (Berlin),
de:11000:900150518,,Betriebshof Indira-Gandhi-Str. (Berlin),,52.544352,13.468636,1,,0,,5656 Betriebshof Indira-Gandhi-Str. (Berlin),
de:11000:900150519,,Sportforum (Berlin),,52.538412,13.471445,1,,0,,5656 Sportforum (Berlin),
de:11000:900150522,,Gounodstr. (Berlin),,52.548369,13.467178,1,,0,,5656 Gounodstr. (Berlin),
de:11000:900151001,,S Wartenberg (Berlin),,52.573266,13.504238,1,,0,,5656 S Wartenberg (Berlin),
de:11000:900151004,,Zingster Str./Ribnitzer Str. (Berlin),,52.570279,13.49738,1,,0,,5656 Zingster Str./Ribnitzer Str. (Berlin),
de:11000:900151006,,"Berlin, Prerower Platz",,52.563217,13.505059,1,,0,,"5656 Berlin, Prerower Platz",
de:11000:900151501,,Ahrenshooper Str. (Berlin),,52.566214,13.501888,1,,0,,5656 Ahrenshooper Str. (Berlin),
de:11000:900152001,,S Hohenschönhausen Bhf (Berlin),,52.565637,13.51232,1,,0,,5656 S Hohenschönhausen Bhf (Berlin),
de:11000:900152002,,S Gehrenseestr. (Berlin),,52.555736,13.525653,1,,0,,5656 S Gehrenseestr. (Berlin),
de:11000:900152003,,"Berlin, Welsestr.",,52.569174,13.525544,1,,0,,"5656 Berlin, Welsestr.",
de:11000:900152006,,Prendener Str. (Berlin),,52.568634,13.520673,1,,0,,5656 Prendener Str. (Berlin),
de:11000:900152508,,Rüdickenstr. (Berlin),,52.559849,13.510518,1,,0,,5656 Rüdickenstr. (Berlin),
de:11000:900152509,,Arnimstr. (Berlin),,52.558617,13.514811,1,,0,,5656 Arnimstr. (Berlin),
de:11000:900160001,,S Rummelsburg (Berlin),,52.501213,13.478699,1,,0,,5656 S Rummelsburg (Berlin),
de:11000:900160002,,S Betriebsbahnhof Rummelsburg (Berlin),,52.493599,13.498152,1,,0,,5656 S Betriebsbahnhof Rummelsburg (Berlin),
de:11000:900160003,,S Nöldnerplatz (Berlin),,52.503444,13.484297,1,,0,,5656 S Nöldnerplatz (Berlin),
de:11000:900160005,,U Magdalenenstr. (Berlin),,52.512457,13.487492,1,,0,,5656 U Magdalenenstr. (Berlin),
de:11000:900160006,,Heizkraftwerk Klingenberg (Berlin),,52.487926,13.496126,1,,0,,5656 Heizkraftwerk Klingenberg (Berlin),
de:11000:900160007,,Köpenicker Chaussee/Blockdammweg (Berlin),,52.483443,13.502363,1,,0,,5656 Köpenicker Chaussee/Blockdammweg (Berlin),
de:11000:900160010,,Roederplatz (Berlin),,52.527235,13.479564,1,,0,,5656 Roederplatz (Berlin),
de:11000:900160014,,Möllendorffstr./Storkower Str. (Berlin),,52.523171,13.479275,1,,0,,5656 Möllendorffstr./Storkower Str. (Berlin),
de:11000:900160018,,Landsberger Allee/Weißenseer Weg (Berlin),,52.532055,13.476714,1,,0,,5656 Landsberger Allee/Weißenseer Weg (Berlin),
de:11000:900160502,,Gustav-Holzmann-Str. (Berlin),,52.493127,13.490649,1,,0,,5656 Gustav-Holzmann-Str. (Berlin),
de:11000:900160513,,Zechliner Str. (Berlin),,52.533947,13.487153,1,,0,,5656 Zechliner Str. (Berlin),
de:11000:900160514,,Genslerstr. (Berlin),,52.53442,13.495938,1,,0,,5656 Genslerstr. (Berlin),
de:11000:900160515,,Arendsweg (Berlin),,52.534882,13.505564,1,,0,,5656 Arendsweg (Berlin),
de:11000:900160516,,Schalkauer Str. (Berlin),,52.535144,13.50967,1,,0,,5656 Schalkauer Str. (Berlin),
de:11000:900160520,,Ev. Krankenhaus KEH (Berlin),,52.525478,13.508646,1,,0,,5656 Ev. Krankenhaus KEH (Berlin),
de:11000:900160535,,Marktstr. (Berlin),,52.502799,13.474776,1,,0,,5656 Marktstr. (Berlin),
de:11000:900160536,,Kosanke-Siedlung (Berlin),,52.496711,13.485793,1,,0,,5656 Kosanke-Siedlung (Berlin),
de:11000:900160544,,Rathaus Lichtenberg (Berlin),,52.515911,13.479075,1,,0,,5656 Rathaus Lichtenberg (Berlin),
de:11000:900161002,,U Tierpark (Berlin),,52.497236,13.523626,1,,0,,5656 U Tierpark (Berlin),
de:11000:900161004,,"Berlin, Alt-Friedrichsfelde/Rhinstr.",,52.510346,13.518968,1,,0,,"5656 Berlin, Alt-Friedrichsfelde/Rhinstr.",
de:11000:900161508,,Criegernweg (Berlin),,52.50073,13.521759,1,,0,,5656 Criegernweg (Berlin),
de:11000:900161512,,U Friedrichsfelde (Berlin),,52.505464,13.513544,1,,0,,5656 U Friedrichsfelde (Berlin),
de:11000:900161517,,Alfred-Kowalke-Str. (Berlin),,52.505717,13.519707,1,,0,,5656 Alfred-Kowalke-Str. (Berlin),
de:11000:900162001,,S Karlshorst (Berlin),,52.481111,13.525857,1,,0,,5656 S Karlshorst (Berlin),
de:11000:900162002,,Hegemeisterweg (Berlin),,52.474012,13.520218,1,,0,,5656 Hegemeisterweg (Berlin),
de:11000:900162004,,Treskowallee/HTW (Berlin),,52.492821,13.526595,1,,0,,5656 Treskowallee/HTW (Berlin),
de:11000:900162007,,Marksburgstr. (Berlin),,52.486562,13.526908,1,,0,,5656 Marksburgstr. (Berlin),
de:11000:900162504,,Blockdammweg (Berlin),,52.484094,13.509834,1,,0,,5656 Blockdammweg (Berlin),
de:11000:900170001,,S Marzahn (Berlin),,52.543272,13.541524,1,,0,,5656 S Marzahn (Berlin),
de:11000:900170002,,S Raoul-Wallenberg-Str. (Berlin),,52.550749,13.548392,1,,0,,5656 S Raoul-Wallenberg-Str. (Berlin),
de:11000:900170003,,S Mehrower Allee (Berlin),,52.557816,13.554392,1,,0,,5656 S Mehrower Allee (Berlin),
de:11000:900170004,,S Ahrensfelde Bhf (Berlin),,52.571339,13.565649,1,,0,,5656 S Ahrensfelde Bhf (Berlin),
de:11000:900170005,,S Poelchaustr. (Berlin),,52.534751,13.536008,1,,0,,5656 S Poelchaustr. (Berlin),
de:11000:900170006,,Ahrensfelde/Stadtgrenze (Berlin),,52.572835,13.574675,1,,0,,5656 Ahrensfelde/Stadtgrenze (Berlin),
de:11000:900170010,,"Berlin, Betriebshof Marzahn",,52.549006,13.583714,1,,0,,"5656 Berlin, Betriebshof Marzahn",
de:11000:900170011,,Barnimplatz (Berlin),,52.567806,13.573698,1,,0,,5656 Barnimplatz (Berlin),
de:11000:900170013,,Landsberger Allee/Blumberger Damm (Berlin),,52.546124,13.572037,1,,0,,5656 Landsberger Allee/Blumberger Damm (Berlin),
de:11000:900170019,,Allee der Kosmonauten/Poelchaustr. (Berlin),,52.533928,13.552782,1,,0,,5656 Allee der Kosmonauten/Poelchaustr. (Berlin),
de:11000:900170020,,Marzahner Promenade (Berlin),,52.543408,13.549696,1,,0,,5656 Marzahner Promenade (Berlin),
de:11000:900170506,,Niemegker Str. (Berlin),,52.564725,13.571582,1,,0,,5656 Niemegker Str. (Berlin),
de:11000:900170515,,Adersleber Weg (Berlin),,52.537893,13.56032,1,,0,,5656 Adersleber Weg (Berlin),
de:11000:900170516,,Alt-Marzahn (Berlin),,52.541965,13.563708,1,,0,,5656 Alt-Marzahn (Berlin),
de:11000:900170519,,Freizeitforum Marzahn (Berlin),,52.546681,13.557462,1,,0,,5656 Freizeitforum Marzahn (Berlin),
de:11000:900170520,,Dingelstädter Str. (Berlin),,52.536739,13.524788,1,,0,,5656 Dingelstädter Str. (Berlin),
de:11000:900170521,,Gewerbepark Georg Knorr (Berlin),,52.539047,13.533977,1,,0,,5656 Gewerbepark Georg Knorr (Berlin),
de:11000:900170524,,Brodowiner Ring (Berlin),,52.547639,13.578357,1,,0,,5656 Brodowiner Ring (Berlin),
de:11000:900170529,,Bürgerpark Marzahn (Berlin),,52.54985,13.560745,1,,0,,5656 Bürgerpark Marzahn (Berlin),
de:11000:900170530,,Max-Herrmann-Str. (Berlin),,52.553901,13.565668,1,,0,,5656 Max-Herrmann-Str. (Berlin),
de:11000:900170531,,Wuhletalstr. (Berlin),,52.557714,13.568235,1,,0,,5656 Wuhletalstr. (Berlin),
de:11000:900171001,,S Biesdorf (Berlin),,52.513059,13.555035,1,,0,,5656 S Biesdorf (Berlin),
de:11000:900171002,,S Friedrichsfelde Ost (Berlin),,52.513531,13.519078,1,,0,,5656 S Friedrichsfelde Ost (Berlin),
de:11000:900171003,,S Springpfuhl (Berlin),,52.526147,13.53687,1,,0,,5656 S Springpfuhl (Berlin),
de:11000:900171005,,U Biesdorf-Süd (Berlin),,52.499517,13.547326,1,,0,,5656 U Biesdorf-Süd (Berlin),
de:11000:900171006,,U Elsterwerdaer Platz (Berlin),,52.505133,13.560646,1,,0,,5656 U Elsterwerdaer Platz (Berlin),
de:11000:900171008,,Allee der Kosmonauten/Rhinstr. (Berlin),,52.525499,13.519653,1,,0,,5656 Allee der Kosmonauten/Rhinstr. (Berlin),
de:11000:900171011,,Landsberger Allee/Rhinstr. (Berlin),,52.535656,13.517484,1,,0,,5656 Landsberger Allee/Rhinstr. (Berlin),
de:11000:900171514,,Meeraner Str. (Berlin),,52.52927,13.519268,1,,0,,5656 Meeraner Str. (Berlin),
de:11000:900171515,,Beilsteiner Str. (Berlin),,52.525499,13.530115,1,,0,,5656 Beilsteiner Str. (Berlin),
de:11000:900171516,,Helene-Weigel-Platz (Berlin),,52.525962,13.542878,1,,0,,5656 Helene-Weigel-Platz (Berlin),
de:11000:900171517,,Boschpoler Str. (Berlin),,52.527502,13.548811,1,,0,,5656 Boschpoler Str. (Berlin),
de:11000:900171540,,Kleingartenanlage Bielefeldt (Berlin),,52.519014,13.519341,1,,0,,5656 Kleingartenanlage Bielefeldt (Berlin),
de:11000:900175001,,S+U Wuhletal (Berlin),,52.512724,13.574536,1,,0,,5656 S+U Wuhletal (Berlin),
de:11000:900175002,,S Kaulsdorf (Berlin),,52.512122,13.58903,1,,0,,5656 S Kaulsdorf (Berlin),
de:11000:900175004,,U Kaulsdorf-Nord (Berlin),,52.521436,13.588763,1,,0,,5656 U Kaulsdorf-Nord (Berlin),
de:11000:900175005,,U Kienberg (Gärten der Welt) (Berlin),,52.52849,13.59055,1,,0,,5656 U Kienberg (Gärten der Welt) (Berlin),
de:11000:900175006,,U Cottbusser Platz (Berlin),,52.533963,13.596894,1,,0,,5656 U Cottbusser Platz (Berlin),
de:11000:900175007,,U Hellersdorf (Berlin),,52.536328,13.605323,1,,0,,5656 U Hellersdorf (Berlin),
de:11000:900175010,,U Hönow (Berlin),,52.538105,13.634541,1,,0,,5656 U Hönow (Berlin),
de:11000:900175011,,Stendaler Str./Quedlinburger Str. (Berlin),,52.538956,13.604518,1,,0,,5656 Stendaler Str./Quedlinburger Str. (Berlin),
de:11000:900175013,,Riesaer Str. (Berlin),,52.529404,13.624183,1,,0,,5656 Riesaer Str. (Berlin),
de:11000:900175014,,Riesaer Str./Louis-Lewin-Str. (Berlin),,52.530327,13.622389,1,,0,,5656 Riesaer Str./Louis-Lewin-Str. (Berlin),
de:11000:900175015,,U Louis-Lewin-Str. (Berlin),,52.539135,13.619707,1,,0,,5656 U Louis-Lewin-Str. (Berlin),
de:11000:900175510,,Landsberger Chaussee/Zossener Str. (Berlin),,52.549218,13.587997,1,,0,,5656 Landsberger Chaussee/Zossener Str. (Berlin),
de:11000:900175511,,Michendorfer Str. (Berlin),,52.545536,13.587068,1,,0,,5656 Michendorfer Str. (Berlin),
de:11000:900175512,,Alte Hellersdorfer/Zossener Str. (Berlin),,52.544839,13.592173,1,,0,,5656 Alte Hellersdorfer/Zossener Str. (Berlin),
de:11000:900175513,,Zossener Str./Kastanienallee (Berlin),,52.543791,13.599196,1,,0,,5656 Zossener Str./Kastanienallee (Berlin),
de:11000:900175514,,Stendaler Str./Zossener Str. (Berlin),,52.543705,13.603557,1,,0,,5656 Stendaler Str./Zossener Str. (Berlin),
de:11000:900175519,,Nossener Str. (Berlin),,52.532938,13.610194,1,,0,,5656 Nossener Str. (Berlin),
de:11000:900175520,,Jenaer Str. (Berlin),,52.531938,13.614908,1,,0,,5656 Jenaer Str. (Berlin),
de:11000:900176001,,S Mahlsdorf Bhf (Berlin),,52.512041,13.610693,1,,0,,5656 S Mahlsdorf Bhf (Berlin),
de:11000:900176512,,Hultschiner Damm/Seestr. (Berlin),,52.477094,13.600603,1,,0,,5656 Hultschiner Damm/Seestr. (Berlin),
de:11000:900176524,,"Berlin, Alt-Mahlsdorf",,52.505116,13.613271,1,,0,,"5656 Berlin, Alt-Mahlsdorf",
de:11000:900176525,,"Berlin, Rahnsdorfer Str.",,52.498419,13.613145,1,,0,,"5656 Berlin, Rahnsdorfer Str.",
de:11000:900176526,,Ledebourstr. (Berlin),,52.493715,13.609673,1,,0,,5656 Ledebourstr. (Berlin),
de:11000:900176533,,Roseggerstr. (Berlin),,52.480296,13.601057,1,,0,,5656 Roseggerstr. (Berlin),
de:11000:900176534,,Erich-Baron-Weg (Berlin),,52.483481,13.602204,1,,0,,5656 Erich-Baron-Weg (Berlin),
de:11000:900176535,,Bütower Str. (Berlin),,52.485821,13.603938,1,,0,,5656 Bütower Str. (Berlin),
de:11000:900176536,,Bruchsaler Str. (Berlin),,52.48874,13.606031,1,,0,,5656 Bruchsaler Str. (Berlin),
de:11000:900176537,,Eichenhofweg (Berlin),,52.490992,13.607645,1,,0,,5656 Eichenhofweg (Berlin),
de:11000:900180001,,S Köpenick (Berlin),,52.458692,13.579543,1,,0,,5656 S Köpenick (Berlin),
de:11000:900180002,,S Wuhlheide (Berlin),,52.469058,13.553527,1,,0,,5656 S Wuhlheide (Berlin),
de:11000:900180003,,S Spindlersfeld (Berlin),,52.445938,13.562701,1,,0,,5656 S Spindlersfeld (Berlin),
de:11000:900180004,,Pablo-Neruda-Str. (Berlin),,52.441038,13.586426,1,,0,,5656 Pablo-Neruda-Str. (Berlin),
de:11000:900180005,,Müggelheimer Str./Wendenschloßstr. (Berlin),,52.44298,13.581672,1,,0,,5656 Müggelheimer Str./Wendenschloßstr. (Berlin),
de:11000:900180007,,Schloßplatz Köpenick (Berlin),,52.444313,13.575187,1,,0,,5656 Schloßplatz Köpenick (Berlin),
de:11000:900180008,,Bahnhofstr./Lindenstr. (Berlin),,52.450914,13.572409,1,,0,,5656 Bahnhofstr./Lindenstr. (Berlin),
de:11000:900180010,,Mittelheide (Berlin),,52.463202,13.583706,1,,0,,5656 Mittelheide (Berlin),
de:11000:900180012,,Köllnischer Platz (Berlin),,52.444575,13.569256,1,,0,,5656 Köllnischer Platz (Berlin),
de:11000:900180013,,Bellevuestr. (Berlin),,52.453042,13.594022,1,,0,,5656 Bellevuestr. (Berlin),
de:11000:900180015,,Wendenschloß (Berlin),,52.417308,13.589351,1,,0,,5656 Wendenschloß (Berlin),
de:11000:900180017,,"Berlin, Mahlsdorf-Süd",,52.47412,13.598537,1,,0,,"5656 Berlin, Mahlsdorf-Süd",
de:11000:900180022,,Krankenhaus Köpenick/Südseite (Berlin),,52.438692,13.593136,1,,0,,5656 Krankenhaus Köpenick/Südseite (Berlin),
de:11000:900180510,,Ottomar-Geschke-Str. (Berlin),,52.441971,13.55953,1,,0,,5656 Ottomar-Geschke-Str. (Berlin),
de:11000:900180525,,Unter den Birken (Berlin),,52.469864,13.588876,1,,0,,5656 Unter den Birken (Berlin),
de:11000:900180526,,Wongrowitzer Steig (Berlin),,52.46707,13.585493,1,,0,,5656 Wongrowitzer Steig (Berlin),
de:11000:900181002,,Rummelsburger Str./Edisonstr. (Berlin),,52.468136,13.513717,1,,0,,5656 Rummelsburger Str./Edisonstr. (Berlin),
de:11000:900181003,,Freizeit- und Erholungszentrum (Berlin),,52.457518,13.543896,1,,0,,5656 Freizeit- und Erholungszentrum (Berlin),
de:11000:900181501,,Volkspark Wuhlheide (Berlin),,52.471058,13.517144,1,,0,,5656 Volkspark Wuhlheide (Berlin),
de:11000:900181506,,Nixenstr. (Berlin),,52.456331,13.550813,1,,0,,5656 Nixenstr. (Berlin),
de:11000:900181507,,Spindlersfelder Str. (Berlin),,52.45593,13.558744,1,,0,,5656 Spindlersfelder Str. (Berlin),
de:11000:900181513,,Alte Försterei (Berlin),,52.456516,13.563414,1,,0,,5656 Alte Försterei (Berlin),
de:11000:900182001,,S Hirschgarten (Berlin),,52.457856,13.601462,1,,0,,5656 S Hirschgarten (Berlin),
de:11000:900182002,,S Friedrichshagen (Berlin),,52.45719,13.625478,1,,0,,5656 S Friedrichshagen (Berlin),
de:11000:900182003,,"Berlin, Hirschgartendreieck",,52.451854,13.600695,1,,0,,"5656 Berlin, Hirschgartendreieck",
de:11000:900182501,,"Berlin, Westendsiedlung",,52.453361,13.60898,1,,0,,"5656 Berlin, Westendsiedlung",
de:11000:900182502,,Mühlweg (Berlin),,52.454352,13.613386,1,,0,,5656 Mühlweg (Berlin),
de:11000:900182508,,Wassersportzentrum (Berlin),,52.448605,13.610381,1,,0,,5656 Wassersportzentrum (Berlin),
de:11000:900182509,,Spreestr. (Berlin),,52.44696,13.615704,1,,0,,5656 Spreestr. (Berlin),
de:11000:900182510,,Hartlebenstr. (Berlin),,52.4567,13.632907,1,,0,,5656 Hartlebenstr. (Berlin),
de:11000:900182511,,Wasserwerk Friedrichshagen (Berlin),,52.455994,13.643017,1,,0,,5656 Wasserwerk Friedrichshagen (Berlin),
de:11000:900182512,,Fürstenwalder Damm (Berlin),,52.452153,13.653539,1,,0,,5656 Fürstenwalder Damm (Berlin),
de:11000:900182513,,Fürstenwalder Damm/Müggelseedamm (Berlin),,52.44941,13.663248,1,,0,,5656 Fürstenwalder Damm/Müggelseedamm (Berlin),
de:11000:900182514,,Brösener Str. (Berlin),,52.459126,13.635005,1,,0,,5656 Brösener Str. (Berlin),
de:11000:900183001,,S Rahnsdorf (Berlin),,52.451442,13.691582,1,,0,,5656 S Rahnsdorf (Berlin),
de:11000:900183002,,S Wilhelmshagen (Berlin),,52.438734,13.721143,1,,0,,5656 S Wilhelmshagen (Berlin),
de:11000:900183513,,Licht- und Luftbad Müggelsee (Berlin),,52.447285,13.67117,1,,0,,5656 Licht- und Luftbad Müggelsee (Berlin),
de:11000:900183514,,Strandbad Müggelsee (Berlin),,52.445791,13.677674,1,,0,,5656 Strandbad Müggelsee (Berlin),
de:11000:900185501,,"Berlin, Zum Seeblick",,52.379177,13.644231,1,,0,,"5656 Berlin, Zum Seeblick",
de:11000:900185503,,Adlergestell/Vetschauer Allee (Berlin),,52.386409,13.63389,1,,0,,5656 Adlergestell/Vetschauer Allee (Berlin),
de:11000:900185504,,Lübbenauer Weg (Berlin),,52.391317,13.634945,1,,0,,5656 Lübbenauer Weg (Berlin),
de:11000:900185505,,Schappachstr. (Berlin),,52.394618,13.631876,1,,0,,5656 Schappachstr. (Berlin),
de:11000:900186001,,S Grünau (Berlin),,52.412714,13.574018,1,,0,,5656 S Grünau (Berlin),
de:11000:900186501,,Richtershorn (Berlin),,52.401006,13.624883,1,,0,,5656 Richtershorn (Berlin),
de:11000:900186502,,Strandbad Grünau (Berlin),,52.408701,13.604356,1,,0,,5656 Strandbad Grünau (Berlin),
de:11000:900186503,,Regattastr./Sportpromenade (Berlin),,52.410616,13.597694,1,,0,,5656 Regattastr./Sportpromenade (Berlin),
de:11000:900186504,,Regattatribünen (Berlin),,52.411597,13.587568,1,,0,,5656 Regattatribünen (Berlin),
de:11000:900190001,,S Treptower Park (Berlin),,52.493832,13.461825,1,,0,,5555 S Treptower Park (Berlin),
de:11000:900191001,,S Baumschulenweg (Berlin),,52.467581,13.489505,1,,0,,5656 S Baumschulenweg (Berlin),
de:11000:900191002,,S Plänterwald (Berlin),,52.478722,13.474029,1,,0,,5656 S Plänterwald (Berlin),
de:11000:900192001,,S Schöneweide Bhf (Berlin),,52.454611,13.510149,1,,0,,5656 S Schöneweide Bhf (Berlin),
de:11000:900192002,,S Oberspree (Berlin),,52.452269,13.538461,1,,0,,5656 S Oberspree (Berlin),
de:11000:900193001,,S Johannisthal (Berlin),,52.446695,13.524028,1,,0,,5656 S Johannisthal (Berlin),
de:11000:900193002,,S Adlershof (Berlin),,52.435102,13.540553,1,,0,,5656 S Adlershof (Berlin),
de:11000:900194006,,S Schöneweide/Sterndamm (Berlin),,52.452621,13.508668,1,,0,,5656 S Schöneweide/Sterndamm (Berlin),
de:11000:900194007,,Sterndamm/Königsheideweg (Berlin),,52.446657,13.506656,1,,0,,5656 Sterndamm/Königsheideweg (Berlin),
de:11000:900194010,,Gerhard-Sedlmayr-Str. (Berlin),,52.440696,13.522953,1,,0,,5656 Gerhard-Sedlmayr-Str. (Berlin),
de:11000:900194011,,Nieberstr. (Berlin),,52.448772,13.512023,1,,0,,5656 Nieberstr. (Berlin),
de:11000:900194501,,Magnusstr. (Berlin),,52.429763,13.530237,1,,0,,5656 Magnusstr. (Berlin),
de:11000:900194514,,Benno-König-Str. (Berlin),,52.443716,13.518748,1,,0,,5656 Benno-König-Str. (Berlin),
de:11000:900194517,,Landfliegerstr. (Berlin),,52.446365,13.51475,1,,0,,5656 Landfliegerstr. (Berlin),
de:11000:900194522,,Pietschkerstr. (Berlin),,52.450654,13.508219,1,,0,,5656 Pietschkerstr. (Berlin),
de:11000:900195510,,S Altglienicke (Berlin),,52.407791,13.559602,1,,0,,5656 S Altglienicke (Berlin),
de:11000:900196001,,S Grünbergallee (Berlin),,52.399539,13.543222,1,,0,,5656 S Grünbergallee (Berlin),
de:12061:900260005,,S Schönefeld (bei Berlin) Bhf,,52.390906,13.513046,1,,0,,5957 S Schönefeld (bei Berlin) Bhf,
de:12064:900320007,,S Neuenhagen (b Berlin),,52.520614,13.700053,1,,1,,5460 S Neuenhagen (b Berlin),
de:11000:900100001:1:50,,S+U Friedrichstr. Bhf (Berlin),Bahnsteig Gleis 1,52.520125,13.386598,0,de:11000:900100001,0,1.0,5555 S+U Friedrichstr. Bhf (Berlin),23.0
de:11000:900100001:1:51,,S+U Friedrichstr. Bhf (Berlin),Bahnsteig Gleis 2,52.520215,13.386653,0,de:11000:900100001,0,2.0,5555 S+U Friedrichstr. Bhf (Berlin),23.0
de:11000:900100001:2:52,,S+U Friedrichstr. Bhf (Berlin),Bahnsteig Gleis 3,52.520274,13.386683,0,de:11000:900100001,0,3.0,5555 S+U Friedrichstr. Bhf (Berlin),23.0
de:11000:900100001:2:53,,S+U Friedrichstr. Bhf (Berlin),Bahnsteig Gleis 4,52.520362,13.38673,0,de:11000:900100001,0,4.0,5555 S+U Friedrichstr. Bhf (Berlin),23.0
de:11000:900029305,,"Berlin, Staaken Bhf",,52.537697,13.142156,1,,0,,"5656 Berlin, Staaken Bhf",
de:11000:900029305:1:51,,"Berlin, Staaken Bhf",Bahnsteig Gleis 2,52.537727,13.141313,0,de:11000:900029305,0,2.0,"5656 Berlin, Staaken Bhf",2.0
de:11000:900029305:1:50,,"Berlin, Staaken Bhf",Bahnsteig Gleis 1,52.537673,13.141305,0,de:11000:900029305,0,1.0,"5656 Berlin, Staaken Bhf",2.0
de:11000:900050201,,U Krumme Lanke (Berlin),,52.442615,13.24036,1,,0,,5656 U Krumme Lanke (Berlin),
de:11000:900020202,,S Beusselstr. (Berlin),,52.534314,13.328703,1,,0,,5555 S Beusselstr. (Berlin),
de:11000:900134511,,Guyotstr. (Berlin),,52.605464,13.41708,1,,0,,5656 Guyotstr. (Berlin),
de:11000:900134512,,"Berlin, Navarraplatz",,52.608242,13.429225,1,,0,,"5656 Berlin, Navarraplatz",
de:11000:900134513,,"Berlin, Arnouxstr.",,52.607333,13.42464,1,,0,,"5656 Berlin, Arnouxstr.",
de:11000:900194504,,Walther-Nernst-Str. (Berlin),,52.432269,13.53522,1,,0,,5656 Walther-Nernst-Str. (Berlin),
de:11000:900073253::1,,Ahrensdorfer Str. (Berlin),Bushalt Marienfelder Allee vor Ahrensdorfer Straße,52.408809,13.359237,0,,0,,5656 Ahrensdorfer Str. (Berlin),4.0
de:11000:900073253::2,,Ahrensdorfer Str. (Berlin),Bushalt Marienfelder Allee vor Ahrensdorfer Straße,52.409158,13.359291,0,,0,,5656 Ahrensdorfer Str. (Berlin),4.0
de:11000:900073254::1,,Baußnernweg (Berlin),Bushalt Marienfelder Allee vor Wippraer Weg,52.405521,13.356591,0,,0,,5656 Baußnernweg (Berlin),4.0
de:11000:900073254::2,,Baußnernweg (Berlin),Bushalt Marienfelder Allee vor Baußnernweg,52.405422,13.3562,0,,0,,5656 Baußnernweg (Berlin),4.0
de:11000:900073203::2,,Klausenburger Pfad (Berlin),Bushalt Marienfelder Allee ht. Tilkeroder Weg,52.402537,13.35343,0,,0,,5656 Klausenburger Pfad (Berlin),4.0
de:11000:900073203::1,,Klausenburger Pfad (Berlin),Bushalt Marienfelder Allee vor Klausenburger Pfad,52.402828,13.353398,0,,0,,5656 Klausenburger Pfad (Berlin),4.0
de:11000:900072102::1,,Gutspark Marienfelde (Berlin),Bushalt Nahmitzer Damm ht. Motzener Straße,52.409227,13.376924,0,,0,,5656 Gutspark Marienfelde (Berlin),4.0
de:11000:900072102::2,,Gutspark Marienfelde (Berlin),Bushalt Nahmitzer Damm ht. Motzener Straße,52.409185,13.375316,0,,0,,5656 Gutspark Marienfelde (Berlin),4.0
de:11000:900072101::1,,S Buckower Chaussee (Berlin),Bushalt Buckower Chaussee vor Bahnübergang,52.410173,13.3799,0,,0,,5656 S Buckower Chaussee (Berlin),9.0
de:12061:900260196::1,,"Berlin, Lichtenrader Chaussee",Bushalt Lichtenrader Chaussee vor Braunfelsstraße,52.395085,13.424146,0,,0,,"5656 Berlin, Lichtenrader Chaussee",4.0
de:11000:900074254::2,,Rennsteig (Berlin),Bushalt Groß-Ziethener Straße vor Rennsteig,52.394777,13.419133,0,,0,,5656 Rennsteig (Berlin),4.0
de:12061:900260512::1,,"Waltersdorf (bei Berlin), Am Rondell",Bushalt Grünauer Straße vor Am Pechpfuhl,52.367409,13.559742,0,,0,,"5858 Waltersdorf (bei Berlin), Am Rondell",4.0
de:12061:900260512::2,,"Waltersdorf (bei Berlin), Am Rondell",Bushalt Grünauer Straße hinter Am Pechpfuhl,52.36802,13.560134,0,,0,,"5858 Waltersdorf (bei Berlin), Am Rondell",4.0
de:12061:900260509::1,,"Schönefeld (bei Berlin), Seeweg",Bushalt Am Seegraben hinter Schützenstraße,52.39478,13.533665,0,,0,,"5957 Schönefeld (bei Berlin), Seeweg",4.0
de:12061:900260509::2,,"Schönefeld (bei Berlin), Seeweg",Bushalt Am Seegraben vor Schützenstraße,52.394658,13.533885,0,,0,,"5957 Schönefeld (bei Berlin), Seeweg",4.0
de:11000:900260607::1,,Campingplatz Krossinsee (Berlin),Bushalt Intercamping,52.370625,13.682786,0,,0,,5656 Campingplatz Krossinsee (Berlin),9.0
de:11000:900185509::1,,Wernsdorfer Str. (Berlin),Bushalt Wernsdorfer Straße Richtung Schmöckwitz,52.371575,13.671723,0,,0,,5656 Wernsdorfer Str. (Berlin),4.0
de:11000:900185001::9,,"Berlin, Alt-Schmöckwitz",Bushalt Wernsdorfer Straße vor Adlergestell,52.375965,13.649552,0,,0,,"5656 Berlin, Alt-Schmöckwitz",4.0
de:11000:900185001::7,,"Berlin, Alt-Schmöckwitz",Bushalt Wernsdorfer Straße ht. Adlergestell,52.375876,13.649679,0,,0,,"5656 Berlin, Alt-Schmöckwitz",4.0
de:11000:900185509::2,,Wernsdorfer Str. (Berlin),Bushalt Wernsdorfer Straße Richtung Wernsdorf,52.371459,13.672231,0,,0,,5656 Wernsdorfer Str. (Berlin),4.0
de:11000:900260607::2,,Campingplatz Krossinsee (Berlin),Bushalt Intercamping vor Schmöckwitzwerder Süd,52.370566,13.68284,0,,0,,5656 Campingplatz Krossinsee (Berlin),9.0
de:11000:900260608::2,,"Berlin, Schmöckwitzwerder",Bushalt Wernsdorfer Straße hinter Schmöckwitzwerder Süd,52.371665,13.693617,0,,0,,"5656 Berlin, Schmöckwitzwerder",9.0
de:12061:900260937::1,,"Schönefeld (bei Berlin), Oberschule",Bushalt Am Seegraben hinter Parkstraße,52.395128,13.530473,0,,0,,"5957 Schönefeld (bei Berlin), Oberschule",4.0
de:12061:900260023::2,,"Waltersdorf (bei Berlin), Berliner Str.",Bushalt Schulzendorfer Straße hinter Berliner Straße,52.361623,13.557043,0,,0,,"5858 Waltersdorf (bei Berlin), Berliner Str.",9.0
de:12061:900260023::1,,"Waltersdorf (bei Berlin), Berliner Str.",Bushalt Schulzendorfer Straßer vor Berliner Straße,52.361669,13.557047,0,,0,,"5858 Waltersdorf (bei Berlin), Berliner Str.",9.0
de:12061:900260005::4,,S Schönefeld (bei Berlin) Bhf,Bushalt Bahnhofsvorplatz 5. Busspur,52.390295,13.512769,0,,0,,5957 S Schönefeld (bei Berlin) Bhf,4.0
de:12061:900260935::1,,"Schönefeld, Kirchstr. (b.Berlin)",Bushalt Dorf,52.3869,13.504541,0,,0,,"5957 Schönefeld, Kirchstr. (b.Berlin)",4.0
de:11000:900083205::1,,Ascherslebener Weg (Berlin),Bushalt Groß-Ziethener Chaussee hinter Geflügelst,52.410559,13.479872,0,,0,,5656 Ascherslebener Weg (Berlin),4.0
de:11000:900083264::1,,Pirnaer Str. (Berlin),Bushalt Groß-Ziethener Chaussee ht. Pirnaer Straße,52.41197,13.484116,0,,0,,5656 Pirnaer Str. (Berlin),4.0
de:11000:900083265::1,,Rudower Fließ (Berlin),Bushalt Groß-Ziethener Ch. hinter Rhodeländerweg,52.413515,13.491197,0,,0,,5656 Rudower Fließ (Berlin),4.0
de:11000:900083201::18,,U Rudow (Berlin),Bushalt Groß-Zieth. Ch. ht. Neuköllner Str. Pos. 8,52.415575,13.495969,0,,0,,5656 U Rudow (Berlin),4.0
de:11000:900083201::19,,U Rudow (Berlin),Bushalt Groß-Zieth. Ch. vor Neuköllner Str. Pos. 7,52.415534,13.496265,0,,0,,5656 U Rudow (Berlin),4.0
de:11000:900083265::2,,Rudower Fließ (Berlin),Bushalt Groß-Ziethener Chaussee vor Zittauer Str.,52.413383,13.489074,0,,0,,5656 Rudower Fließ (Berlin),4.0
de:11000:900083264::2,,Pirnaer Str. (Berlin),Bushalt Groß-Ziethener Chaussee ht. Pirnaer Straße,52.41183,13.483416,0,,0,,5656 Pirnaer Str. (Berlin),4.0
de:11000:900083205::2,,Ascherslebener Weg (Berlin),Bushalt Groß-Ziethener Chaussee vor Ascherslebener,52.410673,13.479985,0,,0,,5656 Ascherslebener Weg (Berlin),4.0
de:12061:900260935::2,,"Schönefeld, Kirchstr. (b.Berlin)",Bushalt Dorf,52.386985,13.504983,0,,0,,"5957 Schönefeld, Kirchstr. (b.Berlin)",4.0
de:11000:900081256::1,,Mollnerweg (Berlin),Bushalt Buckower Damm ht. Mollnerweg,52.419627,13.438299,0,,0,,5656 Mollnerweg (Berlin),4.0
de:11000:900081257::1,,An den Achterhöfen (Berlin),Bushalt Buckower Damm vor Alt Buckow,52.422346,13.437692,0,,0,,5656 An den Achterhöfen (Berlin),4.0
de:11000:900080651::1,,Steinträgerweg (Berlin),Bushalt Johannisthaler Chaussee vor Wildmeisterdamm,52.424397,13.44072,0,,0,,5656 Steinträgerweg (Berlin),4.0
de:11000:900080602::1,,Tischlerzeile (Berlin),Bushalt Johannisthaler Chaussee hinter Kölner Damm,52.427203,13.447832,0,,0,,5656 Tischlerzeile (Berlin),4.0
de:11000:900082202::3,,U Johannisthaler Chaussee (Berlin),Bushalt Johannisthaler Chaussee ht. Kirschnerweg,52.429342,13.453407,0,,0,,5656 U Johannisthaler Chaussee (Berlin),4.0
de:11000:900082202::4,,U Johannisthaler Chaussee (Berlin),Bushalt Johannisthaler Ch. ht. Höltermannsteig,52.429484,13.453134,0,,0,,5656 U Johannisthaler Chaussee (Berlin),4.0
de:11000:900080602::2,,Tischlerzeile (Berlin),Bushalt Johannisthaler Chaussee vor Tischlerzeile,52.427225,13.447245,0,,0,,5656 Tischlerzeile (Berlin),4.0
de:11000:900080651::2,,Steinträgerweg (Berlin),Bushalt Johannisthaler Chaussee v Steinträgerweg,52.424404,13.439982,0,,0,,5656 Steinträgerweg (Berlin),4.0
de:11000:900081257::2,,An den Achterhöfen (Berlin),Bushalt Buckower Damm hinter An den Achterhöfen,52.421528,13.437892,0,,0,,5656 An den Achterhöfen (Berlin),4.0
de:11000:900081256::2,,Mollnerweg (Berlin),Bushalt Buckower Damm ht. ggü Mollnerweg,52.419102,13.438183,0,,0,,5656 Mollnerweg (Berlin),4.0
de:11000:900260726::2,,"Großziethen, Stadtgrenze Berlin",Bushalt Karl-Marx-Straße vor Am Mauerweg,52.414059,13.43885,0,,0,,"5856 Großziethen, Stadtgrenze Berlin",4.0
de:11000:900074254::1,,Rennsteig (Berlin),Bushalt Nahariyastraße hinter Groß-Ziethener Str.,52.394223,13.419585,0,,0,,5656 Rennsteig (Berlin),4.0
de:12061:900260196::2,,"Berlin, Lichtenrader Chaussee",Bushalt Lichtenrader Chaussee hinter Braunfelsstraße,52.395016,13.424248,0,,0,,"5656 Berlin, Lichtenrader Chaussee",4.0
de:11000:900260608::1,,"Berlin, Schmöckwitzwerder",Bushalt Wernsdorfer Straße vor Schmöckwitzwerder Süd,52.371709,13.693482,0,,0,,"5656 Berlin, Schmöckwitzwerder",9.0
de:12061:900260508::1,,"Schönefeld (bei Berlin), Gartenstr.",Bushalt Am Seegraben vor Gartenstraße Richtung Westen,52.393436,13.527031,0,,0,,"5957 Schönefeld (bei Berlin), Gartenstr.",4.0
de:11000:900001201,,S+U Westhafen (Berlin),,52.536183,13.343837,1,,0,,5555 S+U Westhafen (Berlin),
de:11000:900002205,,Lübecker Str. (Berlin),,52.526251,13.345508,1,,0,,5555 Lübecker Str. (Berlin),
de:11000:900001201:1:50,,S+U Westhafen (Berlin),Bahnsteig S-Bahn Gleis 1,52.536218,13.344329,0,de:11000:900001201,0,1.0,5555 S+U Westhafen (Berlin),89.0
de:11000:900001201:1:51,,S+U Westhafen (Berlin),Bahnsteig S-Bahn Gleis 2,52.536318,13.344298,0,de:11000:900001201,0,2.0,5555 S+U Westhafen (Berlin),89.0
de:11000:900003102:1:50,,S Bellevue (Berlin),S-Bahnsteig Gleis 3,52.519946,13.34809,0,de:11000:900003102,0,,5555 S Bellevue (Berlin),5.0
de:11000:900003102:1:51,,S Bellevue (Berlin),S-Bahnsteig Gleis 4,52.520012,13.348101,0,de:11000:900003102,0,,5555 S Bellevue (Berlin),5.0
de:11000:900003103:1:50,,S Tiergarten (Berlin),Bahnsteig Gleis 3,52.514419,13.336536,0,de:11000:900003103,0,,5555 S Tiergarten (Berlin),5.0
de:11000:900003103:1:51,,S Tiergarten (Berlin),Bahnsteig Gleis 4,52.51444,13.33642,0,de:11000:900003103,0,,5555 S Tiergarten (Berlin),5.0
de:11000:900003201:3:54,,S+U Berlin Hauptbahnhof,S-Bahnsteig Gleis 15,52.525147,13.369354,0,de:11000:900003201,0,15.0,5555 S+U Berlin Hauptbahnhof,1.0
de:11000:900003201:3:55,,S+U Berlin Hauptbahnhof,S-Bahnsteig Gleis 16,52.525261,13.369313,0,de:11000:900003201,0,16.0,5555 S+U Berlin Hauptbahnhof,1.0
de:11000:900007102:1:50,,S+U Gesundbrunnen Bhf (Berlin),S-Bahnsteig Gleis 1,52.549316,13.389883,0,de:11000:900007102,0,,5555 S+U Gesundbrunnen Bhf (Berlin),3.0
de:11000:900007102:1:51,,S+U Gesundbrunnen Bhf (Berlin),S-Bahnsteig Gleis 2,52.549212,13.389895,0,de:11000:900007102,0,,5555 S+U Gesundbrunnen Bhf (Berlin),3.0
de:11000:900007102:2:52,,S+U Gesundbrunnen Bhf (Berlin),S-Bahnsteig Gleis 3,52.549131,13.389907,0,de:11000:900007102,0,,5555 S+U Gesundbrunnen Bhf (Berlin),3.0
de:11000:900007102:2:53,,S+U Gesundbrunnen Bhf (Berlin),S-Bahnsteig Gleis 4,52.549033,13.389919,0,de:11000:900007102,0,,5555 S+U Gesundbrunnen Bhf (Berlin),3.0
de:11000:900020201:2:52,,S+U Jungfernheide Bhf (Berlin),S-Bahnsteig Gleis 5,52.530363,13.299325,0,de:11000:900020201,0,5.0,5555 S+U Jungfernheide Bhf (Berlin),33.0
de:11000:900020201:2:53,,S+U Jungfernheide Bhf (Berlin),S-Bahnsteig Gleis 6,52.530446,13.299292,0,de:11000:900020201,0,6.0,5555 S+U Jungfernheide Bhf (Berlin),33.0
de:11000:900020202:1:50,,S Beusselstr. (Berlin),S-Bahnsteig Gleis 1,52.534359,13.329406,0,de:11000:900020202,0,1.0,5555 S Beusselstr. (Berlin),2.0
de:11000:900020202:1:51,,S Beusselstr. (Berlin),S-Bahnsteig Gleis 2,52.534452,13.329361,0,de:11000:900020202,0,2.0,5555 S Beusselstr. (Berlin),2.0
de:11000:900023201:3:54,,S+U Zoologischer Garten Bhf (Berlin),S-Bahnsteig Gleis 5,52.507031,13.331849,0,de:11000:900023201,0,5.0,5555 S+U Zoologischer Garten Bhf (Berlin),8.0
de:11000:900023201:3:55,,S+U Zoologischer Garten Bhf (Berlin),S-Bahnsteig Gleis 6,52.507068,13.331736,0,de:11000:900023201,0,6.0,5555 S+U Zoologischer Garten Bhf (Berlin),8.0
de:11000:900024101:3:54,,S Charlottenburg Bhf (Berlin),S-Bahnsteig Gleis 5,52.504929,13.304487,0,de:11000:900024101,0,5.0,5555 S Charlottenburg Bhf (Berlin),121.0
de:11000:900024101:3:55,,S Charlottenburg Bhf (Berlin),S-Bahnsteig Gleis 6,52.504988,13.304449,0,de:11000:900024101,0,6.0,5555 S Charlottenburg Bhf (Berlin),121.0
de:11000:900024101:4:56,,S Charlottenburg Bhf (Berlin),S-Bahnsteig Gleis 7,52.50507,13.30439,0,de:11000:900024101,0,7.0,5555 S Charlottenburg Bhf (Berlin),121.0
de:11000:900024101:4:57,,S Charlottenburg Bhf (Berlin),S-Bahnsteig Gleis 8,52.505135,13.304349,0,de:11000:900024101,0,8.0,5555 S Charlottenburg Bhf (Berlin),121.0
de:11000:900024102:1:50,,S Westkreuz (Berlin),S-Bahnsteig Gleis 1,52.501095,13.284364,0,de:11000:900024102,0,1.0,5555 S Westkreuz (Berlin),22.0
de:11000:900024102:1:51,,S Westkreuz (Berlin),S-Bahnsteig Gleis 2,52.501013,13.284448,0,de:11000:900024102,0,2.0,5555 S Westkreuz (Berlin),22.0
de:11000:900024102:2:52,,S Westkreuz (Berlin),S-Bahnsteig Gleis 3,52.500888,13.28459,0,de:11000:900024102,0,3.0,5555 S Westkreuz (Berlin),22.0
de:11000:900024102:2:53,,S Westkreuz (Berlin),S-Bahnsteig Gleis 4,52.500813,13.284665,0,de:11000:900024102,0,4.0,5555 S Westkreuz (Berlin),22.0
de:11000:900024106:1:50,,S Messe Nord/ICC (Berlin),S-Bahnsteig Gleis 1,52.507703,13.283556,0,de:11000:900024106,0,1.0,5555 S Messe Nord/ICC (Berlin),132.0
de:11000:900024106:1:51,,S Messe Nord/ICC (Berlin),S-Bahnsteig Gleis 2,52.507739,13.283409,0,de:11000:900024106,0,2.0,5555 S Messe Nord/ICC (Berlin),132.0
de:11000:900024203:1:51,,S Savignyplatz (Berlin),S-Bahnsteig Gleis 3,52.505117,13.319066,0,de:11000:900024203,0,,5555 S Savignyplatz (Berlin),5.0
de:11000:900025321:1:51,,S Olympiastadion (Berlin),S-Bahnsteig Gleis 2,52.511293,13.242806,0,de:11000:900025321,0,,5656 S Olympiastadion (Berlin),2.0
de:11000:900025321:1:50,,S Olympiastadion (Berlin),S-Bahnsteig Gleis 1,52.511216,13.242843,0,de:11000:900025321,0,1.0,5656 S Olympiastadion (Berlin),2.0
de:11000:900025423:1:50,,S Messe Süd (Berlin),Bahnsteig Gleis 1,52.498568,13.270392,0,de:11000:900025423,0,,5656 S Messe Süd (Berlin),3.0
de:11000:900025424:1:51,,S Pichelsberg (Berlin),S-Bahnsteig Gleis 1,52.510181,13.227421,0,de:11000:900025424,0,,5656 S Pichelsberg (Berlin),3.0
de:11000:900025424:1:50,,S Pichelsberg (Berlin),S-Bahnsteig Gleis 2,52.510241,13.227488,0,de:11000:900025424,0,,5656 S Pichelsberg (Berlin),3.0
de:11000:900026105:1:50,,S Heerstr. (Berlin),S-Bahnsteig Gleis 1,52.507814,13.259813,0,de:11000:900026105,0,,5656 S Heerstr. (Berlin),3.0
de:11000:900026207:1:50,,S Westend (Berlin),S-Bahnsteig Gleis 1,52.517888,13.284378,0,de:11000:900026207,0,1.0,5555 S Westend (Berlin),2.0
de:11000:900026207:1:51,,S Westend (Berlin),S-Bahnsteig Gleis 2,52.517906,13.284555,0,de:11000:900026207,0,2.0,5555 S Westend (Berlin),2.0
de:11000:900029101:1:50,,S Spandau Bhf (Berlin),S-Bahnsteig Gleis 1,52.534774,13.197557,0,de:11000:900029101,0,,5656 S Spandau Bhf (Berlin),5.0
de:11000:900029101:1:51,,S Spandau Bhf (Berlin),S-Bahnsteig Gleis 2,52.53472,13.197532,0,de:11000:900029101,0,,5656 S Spandau Bhf (Berlin),5.0
de:11000:900040101:1:50,,S Halensee (Berlin),S-Bahnsteig Gleis 1,52.496038,13.290596,0,de:11000:900040101,0,,5555 S Halensee (Berlin),2.0
de:11000:900044101:1:50,,S Hohenzollerndamm (Berlin),S-Bahnsteig Gleis 1,52.488671,13.300271,0,de:11000:900044101,0,,5555 S Hohenzollerndamm (Berlin),2.0
de:11000:900044202:1:50,,S+U Bundesplatz (Berlin),S-Bahn Bahnsteig Gleis 1,52.477687,13.329539,0,de:11000:900044202,0,1.0,5555 S+U Bundesplatz (Berlin),33.0
de:11000:900044202:1:51,,S+U Bundesplatz (Berlin),S-Bahn Bahnsteig Gleis 2,52.477611,13.329544,0,de:11000:900044202,0,2.0,5555 S+U Bundesplatz (Berlin),33.0
de:11000:900045102:1:50,,S+U Heidelberger Platz (Berlin),Bahnsteig Gleis 1,52.480059,13.311856,0,de:11000:900045102,0,1.0,5555 S+U Heidelberger Platz (Berlin),81.0
de:11000:900045102:1:51,,S+U Heidelberger Platz (Berlin),Bahnsteig Gleis 2,52.480026,13.311782,0,de:11000:900045102,0,2.0,5555 S+U Heidelberger Platz (Berlin),81.0
de:11000:900048101:1:50,,S Grunewald (Berlin),S-Bahnsteig Gleis 1,52.48837,13.260926,0,de:11000:900048101,0,1.0,5656 S Grunewald (Berlin),33.0
de:11000:900048101:1:51,,S Grunewald (Berlin),S-Bahnsteig Gleis 2,52.488309,13.261033,0,de:11000:900048101,0,2.0,5656 S Grunewald (Berlin),33.0
de:11000:900048101:2:52,,S Grunewald (Berlin),S-Bahnsteig Gleis 3,52.488258,13.261105,0,de:11000:900048101,0,3.0,5656 S Grunewald (Berlin),33.0
de:11000:900048101:2:53,,S Grunewald (Berlin),S-Bahnsteig Gleis 4,52.488179,13.261234,0,de:11000:900048101,0,4.0,5656 S Grunewald (Berlin),33.0
de:11000:900053301:1:50,,S Wannsee Bhf (Berlin),S-Bahnsteig Gleis 1,52.421667,13.179986,0,de:11000:900053301,0,1.0,5656 S Wannsee Bhf (Berlin),9.0
de:11000:900053301:1:51,,S Wannsee Bhf (Berlin),S-Bahnsteig Gleis 2,52.421604,13.180082,0,de:11000:900053301,0,2.0,5656 S Wannsee Bhf (Berlin),9.0
de:11000:900053301:2:52,,S Wannsee Bhf (Berlin),S-Bahnsteig Gleis 3,52.421546,13.180177,0,de:11000:900053301,0,3.0,5656 S Wannsee Bhf (Berlin),9.0
de:11000:900053301:2:53,,S Wannsee Bhf (Berlin),S-Bahnsteig Gleis 4,52.421479,13.180296,0,de:11000:900053301,0,4.0,5656 S Wannsee Bhf (Berlin),9.0
de:11000:900054105:1:50,,S+U Innsbrucker Platz (Berlin),S-Bahnsteig Gleis 1,52.478176,13.341468,0,de:11000:900054105,0,1.0,5555 S+U Innsbrucker Platz (Berlin),79.0
de:11000:900054105:1:51,,S+U Innsbrucker Platz (Berlin),S-Bahnsteig Gleis 2,52.478047,13.341463,0,de:11000:900054105,0,2.0,5555 S+U Innsbrucker Platz (Berlin),79.0
de:11000:900058102:1:50,,S Priesterweg (Berlin),S-Bahnsteig Gleis 1,52.459921,13.356187,0,de:11000:900058102,0,,5656 S Priesterweg (Berlin),107.0
de:11000:900058102:2:51,,S Priesterweg (Berlin),S-Bahnsteig Gleis 2,52.459905,13.356324,0,de:11000:900058102,0,,5656 S Priesterweg (Berlin),107.0
de:11000:900058102:1:52,,S Priesterweg (Berlin),S-Bahnsteig Gleis 3,52.459934,13.356075,0,de:11000:900058102,0,,5656 S Priesterweg (Berlin),107.0
de:11000:900058102:2:53,,S Priesterweg (Berlin),S-Bahnsteig Gleis 4,52.459892,13.356434,0,de:11000:900058102,0,,5656 S Priesterweg (Berlin),107.0
de:11000:900063452:1:50,,S Südende (Berlin),S-Bahnsteig Gleis 1,52.448211,13.353647,0,de:11000:900063452,0,1.0,5656 S Südende (Berlin),106.0
de:11000:900063452:1:51,,S Südende (Berlin),S-Bahnsteig Gleis 2,52.44818,13.353755,0,de:11000:900063452,0,2.0,5656 S Südende (Berlin),106.0
de:11000:900064201:1:50,,S Lichterfelde Süd (Berlin),S-Bahnsteig Gleis 1,52.41025,13.308587,0,de:11000:900064201,0,1.0,5656 S Lichterfelde Süd (Berlin),110.0
de:11000:900064201:1:51,,S Lichterfelde Süd (Berlin),S-Bahnsteig Gleis 2,52.410219,13.308767,0,de:11000:900064201,0,2.0,5656 S Lichterfelde Süd (Berlin),110.0
de:11000:900064256:1:50,,S Osdorfer Str. (Berlin),S-Bahnsteig Gleis 1,52.418911,13.314214,0,de:11000:900064256,0,1.0,5656 S Osdorfer Str. (Berlin),33.0
de:11000:900064256:1:51,,S Osdorfer Str. (Berlin),S-Bahnsteig Gleis 2,52.418882,13.314304,0,de:11000:900064256,0,2.0,5656 S Osdorfer Str. (Berlin),33.0
de:11000:900064301:3:52,,S Lichterfelde Ost Bhf (Berlin),S-Bahnsteig Gleis 1,52.430002,13.32813,0,de:11000:900064301,0,1.0,5656 S Lichterfelde Ost Bhf (Berlin),33.0
de:11000:900064301:3:53,,S Lichterfelde Ost Bhf (Berlin),S-Bahnsteig Gleis 2,52.429919,13.328299,0,de:11000:900064301,0,2.0,5656 S Lichterfelde Ost Bhf (Berlin),33.0
de:11000:900067221:1:50,,S Lankwitz (Berlin),S-Bahnsteig Gleis 2,52.438757,13.342041,0,de:11000:900067221,0,2.0,5656 S Lankwitz (Berlin),33.0
de:11000:900068201:1:50,,S+U Tempelhof (Berlin),Bahnsteig Gleis 1,52.471027,13.384476,0,de:11000:900068201,0,1.0,5555 S+U Tempelhof (Berlin),79.0
de:11000:900068201:1:51,,S+U Tempelhof (Berlin),Bahnsteig Gleis 2,52.470922,13.384416,0,de:11000:900068201,0,2.0,5555 S+U Tempelhof (Berlin),79.0
de:11000:900068301:1:50,,S Attilastr. (Berlin),S-Bahnsteig Gleis 1,52.447898,13.360727,0,de:11000:900068301,0,1.0,5656 S Attilastr. (Berlin),33.0
de:11000:900068301:1:51,,S Attilastr. (Berlin),S-Bahnsteig Gleis 2,52.447931,13.360892,0,de:11000:900068301,0,2.0,5656 S Attilastr. (Berlin),33.0
de:11000:900072101:1:50,,S Buckower Chaussee (Berlin),S-Bahnsteig Gleis 1,52.410239,13.382877,0,de:11000:900072101,0,1.0,5656 S Buckower Chaussee (Berlin),33.0
de:11000:900072101:2:51,,S Buckower Chaussee (Berlin),S-Bahnsteig Gleis 2,52.410252,13.382984,0,de:11000:900072101,0,2.0,5656 S Buckower Chaussee (Berlin),33.0
de:11000:900073101:1:50,,S Marienfelde (Berlin),S-Bahnsteig Gleis 1,52.424278,13.374587,0,de:11000:900073101,0,1.0,5656 S Marienfelde (Berlin),33.0
de:11000:900073101:1:51,,S Marienfelde (Berlin),S-Bahnsteig Gleis 2,52.424296,13.374679,0,de:11000:900073101,0,2.0,5656 S Marienfelde (Berlin),33.0
de:11000:900074201:1:50,,S Lichtenrade (Berlin),S-Bahnsteig Gleis 1,52.386971,13.396353,0,de:11000:900074201,0,1.0,5656 S Lichtenrade (Berlin),9.0
de:11000:900074202:1:50,,S Schichauweg (Berlin),Bahnsteig Gleis 1,52.399129,13.388959,0,de:11000:900074202,0,1.0,5656 S Schichauweg (Berlin),33.0
de:11000:900074202:2:51,,S Schichauweg (Berlin),Bahnsteig Gleis 2,52.399155,13.389089,0,de:11000:900074202,0,2.0,5656 S Schichauweg (Berlin),33.0
de:11000:900077106:1:50,,S Sonnenallee (Berlin),Bahnsteig Gleis 1,52.47299,13.455632,0,de:11000:900077106,0,,5555 S Sonnenallee (Berlin),1.0
de:11000:900077106:1:51,,S Sonnenallee (Berlin),Bahnsteig Gleis 2,52.472954,13.455771,0,de:11000:900077106,0,,5555 S Sonnenallee (Berlin),1.0
de:11000:900077155:1:50,,S Köllnische Heide (Berlin),S-Bahnsteig Gleis 1,52.469676,13.46806,0,de:11000:900077155,0,,5656 S Köllnische Heide (Berlin),121.0
de:11000:900077155:1:51,,S Köllnische Heide (Berlin),S-Bahnsteig Gleis 2,52.4696,13.468084,0,de:11000:900077155,0,,5656 S Köllnische Heide (Berlin),121.0
de:11000:900078201:1:50,,S+U Neukölln (Berlin),S-Bahnsteig Gleis 1,52.469492,13.443156,0,de:11000:900078201,0,,5555 S+U Neukölln (Berlin),38.0
de:11000:900078201:1:51,,S+U Neukölln (Berlin),S-Bahnsteig Gleis 2,52.469373,13.443216,0,de:11000:900078201,0,,5555 S+U Neukölln (Berlin),38.0
de:11000:900079221:1:50,,S+U Hermannstr. (Berlin),Bahnsteig Gleis 1,52.46769,13.431204,0,de:11000:900079221,0,1.0,5555 S+U Hermannstr. (Berlin),83.0
de:11000:900079221:1:51,,S+U Hermannstr. (Berlin),Bahnsteig Gleis 2,52.467578,13.431255,0,de:11000:900079221,0,2.0,5555 S+U Hermannstr. (Berlin),83.0
de:11000:900085105:1:50,,S Alt-Reinickendorf (Berlin),S-Bahnsteig Gleis 1,52.577776,13.351235,0,de:11000:900085105,0,1.0,5656 S Alt-Reinickendorf (Berlin),107.0
de:11000:900085201:1:50,,S Schönholz (Berlin),"Bahnsteig Gleis 3, S-Bahn",52.571473,13.381121,0,de:11000:900085201,0,,5656 S Schönholz (Berlin),5.0
de:11000:900085201:1:51,,S Schönholz (Berlin),"Bahnsteig Gleis 4, S-Bahn",52.571407,13.381026,0,de:11000:900085201,0,,5656 S Schönholz (Berlin),5.0
de:11000:900089303:1:50,,S Tegel (Berlin),S-Bahnsteig Gleis 1,52.588123,13.289879,0,de:11000:900089303,0,,5656 S Tegel (Berlin),110.0
de:11000:900089303:1:51,,S Tegel (Berlin),S-Bahnsteig Gleis 2,52.588072,13.289675,0,de:11000:900089303,0,,5656 S Tegel (Berlin),110.0
de:11000:900091203:1:50,,S Heiligensee (Berlin),S-Bahnsteig Gleis 1,52.624476,13.229361,0,de:11000:900091203,0,1.0,5656 S Heiligensee (Berlin),33.0
de:11000:900091203:1:51,,S Heiligensee (Berlin),S-Bahnsteig Gleis 2,52.62453,13.229471,0,de:11000:900091203,0,2.0,5656 S Heiligensee (Berlin),33.0
de:11000:900091205:1:50,,S Schulzendorf (Berlin),S-Bahnsteig Gleis 1,52.612931,13.246032,0,de:11000:900091205,0,1.0,5656 S Schulzendorf (Berlin),33.0
de:11000:900096405:1:50,,S Eichborndamm (Berlin),S-Bahnsteig Gleis 2,52.577688,13.317219,0,de:11000:900096405,0,,5656 S Eichborndamm (Berlin),5.0
de:11000:900096458:1:50,,S+U Karl-Bonhoeffer-Nervenklinik (Berlin),S-Bahnsteig Gleis 2,52.578017,13.328994,0,de:11000:900096458,0,2.0,5656 S+U Karl-Bonhoeffer-Nervenklinik (Berlin),5.0
de:11000:900100001:3:54,,S+U Friedrichstr. Bhf (Berlin),S-Bahnsteig Gleis 5,52.520364,13.38716,0,de:11000:900100001,0,,5555 S+U Friedrichstr. Bhf (Berlin),23.0
de:11000:900100001:3:55,,S+U Friedrichstr. Bhf (Berlin),S-Bahnsteig Gleis 6,52.520458,13.387211,0,de:11000:900100001,0,,5555 S+U Friedrichstr. Bhf (Berlin),23.0
de:11000:900100002:1:50,,S Hackescher Markt (Berlin),S-Bahnsteig Gleis 3,52.522663,13.402462,0,de:11000:900100002,0,,5555 S Hackescher Markt (Berlin),5.0
de:11000:900100002:1:51,,S Hackescher Markt (Berlin),S-Bahnsteig Gleis 4,52.522726,13.40243,0,de:11000:900100002,0,,5555 S Hackescher Markt (Berlin),5.0
de:11000:900100003:2:52,,S+U Alexanderplatz Bhf (Berlin),S-Bahnsteig Gleis 3,52.52152,13.411226,0,de:11000:900100003,0,,5555 S+U Alexanderplatz Bhf (Berlin),15.0
de:11000:900100003:2:53,,S+U Alexanderplatz Bhf (Berlin),S-Bahnsteig Gleis 4,52.521589,13.411357,0,de:11000:900100003,0,,5555 S+U Alexanderplatz Bhf (Berlin),15.0
de:11000:900100004:1:50,,S+U Jannowitzbrücke (Berlin),S-Bahnsteig Gleis 3,52.514193,13.419471,0,de:11000:900100004,0,,5555 S+U Jannowitzbrücke (Berlin),93.0
de:11000:900100004:1:51,,S+U Jannowitzbrücke (Berlin),S-Bahnsteig Gleis 4,52.51425,13.419526,0,de:11000:900100004,0,,5555 S+U Jannowitzbrücke (Berlin),93.0
de:11000:900110001:1:50,,S+U Schönhauser Allee (Berlin),Bahnsteig S-Bahn Gleis 1,52.549274,13.415186,0,de:11000:900110001,0,1.0,5555 S+U Schönhauser Allee (Berlin),3.0
de:11000:900110001:1:51,,S+U Schönhauser Allee (Berlin),Bahnsteig S-Bahn Gleis 2,52.549382,13.415241,0,de:11000:900110001,0,2.0,5555 S+U Schönhauser Allee (Berlin),3.0
de:11000:900110002:1:50,,S Prenzlauer Allee (Berlin),S-Bahnsteig Gleis 1,52.544757,13.425865,0,de:11000:900110002,0,1.0,5555 S Prenzlauer Allee (Berlin),126.0
de:11000:900110002:1:51,,S Prenzlauer Allee (Berlin),S-Bahnsteig Gleis 2,52.54486,13.425975,0,de:11000:900110002,0,2.0,5555 S Prenzlauer Allee (Berlin),126.0
de:11000:900110011:1:50,,S Bornholmer Str. (Berlin),S-Bahnsteig Gleis 1,52.554619,13.397673,0,de:11000:900110011,0,,5656 S Bornholmer Str. (Berlin),106.0
de:11000:900110011:1:51,,S Bornholmer Str. (Berlin),S-Bahnsteig Gleis 2,52.554628,13.397809,0,de:11000:900110011,0,,5656 S Bornholmer Str. (Berlin),106.0
de:11000:900110011:2:52,,S Bornholmer Str. (Berlin),S-Bahnsteig Gleis 3,52.55463,13.39794,0,de:11000:900110011,0,,5656 S Bornholmer Str. (Berlin),106.0
de:11000:900110011:2:53,,S Bornholmer Str. (Berlin),S-Bahnsteig Gleis 4,52.554635,13.39808,0,de:11000:900110011,0,,5656 S Bornholmer Str. (Berlin),106.0
de:11000:900120003:3:55,,S Ostkreuz Bhf (Berlin),S-Bahnsteig Gleis 6,52.503509,13.468841,0,de:11000:900120003,0,6.0,5555 S Ostkreuz Bhf (Berlin),4.0
de:11000:900120005:4:55,,S Ostbahnhof (Berlin),S-Bahnsteig Gleis 8,52.510515,13.435336,0,de:11000:900120005,0,8.0,5555 S Ostbahnhof (Berlin),107.0
de:11000:900120005:4:56,,S Ostbahnhof (Berlin),S-Bahnsteig Gleis 9,52.510594,13.435426,0,de:11000:900120005,0,9.0,5555 S Ostbahnhof (Berlin),107.0
de:11000:900120005:5:57,,S Ostbahnhof (Berlin),S-Bahnsteig Gleis 10,52.510646,13.435474,0,de:11000:900120005,0,10.0,5555 S Ostbahnhof (Berlin),107.0
de:11000:900120005:5:58,,S Ostbahnhof (Berlin),S-Bahnsteig Gleis 11,52.510717,13.435552,0,de:11000:900120005,0,11.0,5555 S Ostbahnhof (Berlin),107.0
de:11000:900130001:1:50,,S Pankow-Heinersdorf (Berlin),Bahnsteig Gleis 1,52.578081,13.429448,0,de:11000:900130001,0,1.0,5656 S Pankow-Heinersdorf (Berlin),152.0
de:11000:900130001:1:51,,S Pankow-Heinersdorf (Berlin),Bahnsteig Gleis 2,52.578039,13.429576,0,de:11000:900130001,0,2.0,5656 S Pankow-Heinersdorf (Berlin),152.0
de:11000:900130002:1:50,,S+U Pankow (Berlin),S-Bahnsteig Gleis 1,52.566222,13.410354,0,de:11000:900130002,0,,5656 S+U Pankow (Berlin),87.0
de:11000:900130002:1:51,,S+U Pankow (Berlin),S-Bahnsteig Gleis 2,52.566292,13.41026,0,de:11000:900130002,0,,5656 S+U Pankow (Berlin),87.0
de:11000:900130003:1:50,,S Wollankstr. (Berlin),Bahnsteig Gleis 3,52.565329,13.392139,0,de:11000:900130003,0,3.0,5656 S Wollankstr. (Berlin),107.0
de:11000:900130003:1:51,,S Wollankstr. (Berlin),Bahnsteig Gleis 4,52.565283,13.392058,0,de:11000:900130003,0,4.0,5656 S Wollankstr. (Berlin),107.0
de:11000:900135001:1:50,,S Buch (Berlin),S-Bahnsteig Gleis 1,52.635818,13.491694,0,de:11000:900135001,0,1.0,5656 S Buch (Berlin),154.0
de:11000:900135001:1:51,,S Buch (Berlin),S-Bahnsteig Gleis 2,52.635863,13.491579,0,de:11000:900135001,0,2.0,5656 S Buch (Berlin),154.0
de:11000:900142001:1:50,,S Blankenburg (Berlin),S-Bahnsteig Gleis 1,52.591376,13.443308,0,de:11000:900142001,0,1.0,5656 S Blankenburg (Berlin),24.0
de:11000:900142001:1:51,,S Blankenburg (Berlin),S-Bahnsteig Gleis 4,52.591334,13.443411,0,de:11000:900142001,0,4.0,5656 S Blankenburg (Berlin),24.0
de:11000:900143001:1:51,,S Karow Bhf (Berlin),Bahnsteig Gleis 2,52.615235,13.469409,0,de:11000:900143001,0,2.0,5656 S Karow Bhf (Berlin),107.0
de:11000:900151001:1:50,,S Wartenberg (Berlin),S-Bahnsteig Gleis 1,52.573076,13.50379,0,de:11000:900151001,0,,5656 S Wartenberg (Berlin),115.0
de:11000:900151001:1:51,,S Wartenberg (Berlin),S-Bahnsteig Gleis 2,52.573023,13.503676,0,de:11000:900151001,0,,5656 S Wartenberg (Berlin),115.0
de:11000:900152001:1:50,,S Hohenschönhausen Bhf (Berlin),S-Bahnsteig Gleis 1,52.566268,13.512604,0,de:11000:900152001,0,1.0,5656 S Hohenschönhausen Bhf (Berlin),22.0
de:11000:900152001:1:51,,S Hohenschönhausen Bhf (Berlin),S-Bahnsteig Gleis 2,52.56622,13.512489,0,de:11000:900152001,0,2.0,5656 S Hohenschönhausen Bhf (Berlin),22.0
de:11000:900152002:1:50,,S Gehrenseestr. (Berlin),S-Bahnsteig Gleis 1,52.556471,13.524843,0,de:11000:900152002,0,,5656 S Gehrenseestr. (Berlin),3.0
de:11000:900152002:1:51,,S Gehrenseestr. (Berlin),S-Bahnsteig Gleis 2,52.556425,13.524692,0,de:11000:900152002,0,,5656 S Gehrenseestr. (Berlin),3.0
de:11000:900160001:1:50,,S Rummelsburg (Berlin),S-Bahnsteig Gleis 1,52.501235,13.478701,0,de:11000:900160001,0,1.0,5656 S Rummelsburg (Berlin),5.0
de:11000:900160001:1:51,,S Rummelsburg (Berlin),S-Bahnsteig Gleis 2,52.501169,13.478667,0,de:11000:900160001,0,2.0,5656 S Rummelsburg (Berlin),5.0
de:11000:900160002:1:50,,S Betriebsbahnhof Rummelsburg (Berlin),S-Bahnsteig Gleis 1,52.493969,13.497724,0,de:11000:900160002,0,1.0,5656 S Betriebsbahnhof Rummelsburg (Berlin),50.0
de:11000:900160002:1:51,,S Betriebsbahnhof Rummelsburg (Berlin),S-Bahnsteig Gleis 2,52.493897,13.497601,0,de:11000:900160002,0,2.0,5656 S Betriebsbahnhof Rummelsburg (Berlin),50.0
de:11000:900160003:1:50,,S Nöldnerplatz (Berlin),Bahnsteig Gleis 1,52.503801,13.485385,0,de:11000:900160003,0,1.0,5656 S Nöldnerplatz (Berlin),5.0
de:11000:900160003:1:51,,S Nöldnerplatz (Berlin),Bahnsteig Gleis 2,52.503881,13.485281,0,de:11000:900160003,0,2.0,5656 S Nöldnerplatz (Berlin),5.0
de:11000:900160004:1:50,,S+U Lichtenberg Bhf (Berlin),S-Bahnsteig Gleis 1,52.51022,13.497972,0,de:11000:900160004,0,1.0,5656 S+U Lichtenberg Bhf (Berlin),102.0
de:11000:900160004:1:51,,S+U Lichtenberg Bhf (Berlin),S-Bahnsteig Gleis 2,52.510303,13.497825,0,de:11000:900160004,0,2.0,5656 S+U Lichtenberg Bhf (Berlin),102.0
de:11000:900162001:1:50,,S Karlshorst (Berlin),S-Bahnsteig Gleis 4,52.480538,13.527019,0,de:11000:900162001,0,,5656 S Karlshorst (Berlin),33.0
de:11000:900162001:1:51,,S Karlshorst (Berlin),S-Bahnsteig Gleis 3,52.480602,13.5271,0,de:11000:900162001,0,,5656 S Karlshorst (Berlin),33.0
de:11000:900170001:1:50,,S Marzahn (Berlin),S-Bahnsteig Gleis 1,52.543259,13.541126,0,de:11000:900170001,0,1.0,5656 S Marzahn (Berlin),110.0
de:11000:900170001:1:51,,S Marzahn (Berlin),S-Bahnsteig Gleis 2,52.543322,13.540944,0,de:11000:900170001,0,2.0,5656 S Marzahn (Berlin),110.0
de:11000:900170002:1:50,,S Raoul-Wallenberg-Str. (Berlin),S-Bahnsteig Gleis 1,52.550735,13.547678,0,de:11000:900170002,0,1.0,5656 S Raoul-Wallenberg-Str. (Berlin),110.0
de:11000:900170002:1:51,,S Raoul-Wallenberg-Str. (Berlin),S-Bahnsteig Gleis 2,52.550783,13.547532,0,de:11000:900170002,0,2.0,5656 S Raoul-Wallenberg-Str. (Berlin),110.0
de:11000:900170003:1:50,,S Mehrower Allee (Berlin),S-Bahnsteig Gleis 1,52.557752,13.553721,0,de:11000:900170003,0,1.0,5656 S Mehrower Allee (Berlin),115.0
de:11000:900170003:1:51,,S Mehrower Allee (Berlin),S-Bahnsteig Gleis 2,52.557792,13.553592,0,de:11000:900170003,0,2.0,5656 S Mehrower Allee (Berlin),115.0
de:11000:900170004:2:52,,S Ahrensfelde Bhf (Berlin),S-Bahnsteig Gleis 41,52.57132,13.565711,0,de:11000:900170004,0,41.0,5656 S Ahrensfelde Bhf (Berlin),50.0
de:11000:900170004:1:50,,S Ahrensfelde Bhf (Berlin),S-Bahnsteig Gleis 42,52.571349,13.565592,0,de:11000:900170004,0,42.0,5656 S Ahrensfelde Bhf (Berlin),50.0
de:11000:900170005:1:50,,S Poelchaustr. (Berlin),S-Bahnsteig Gleis 1,52.53564,13.53555,0,de:11000:900170005,0,1.0,5656 S Poelchaustr. (Berlin),33.0
de:11000:900170005:1:51,,S Poelchaustr. (Berlin),S-Bahnsteig Gleis 2,52.535662,13.535393,0,de:11000:900170005,0,2.0,5656 S Poelchaustr. (Berlin),33.0
de:11000:900171001:1:50,,S Biesdorf (Berlin),S-Bahnsteig Gleis 1,52.513095,13.556379,0,de:11000:900171001,0,,5656 S Biesdorf (Berlin),5.0
de:11000:900171001:2:51,,S Biesdorf (Berlin),S-Bahnsteig Gleis 2,52.513066,13.555982,0,de:11000:900171001,0,,5656 S Biesdorf (Berlin),5.0
de:11000:900171002:1:50,,S Friedrichsfelde Ost (Berlin),S-Bahnsteig Gleis 1,52.514058,13.519948,0,de:11000:900171002,0,1.0,5656 S Friedrichsfelde Ost (Berlin),3.0
de:11000:900171002:1:51,,S Friedrichsfelde Ost (Berlin),S-Bahnsteig Gleis 2,52.514179,13.519948,0,de:11000:900171002,0,2.0,5656 S Friedrichsfelde Ost (Berlin),3.0
de:11000:900171003:1:50,,S Springpfuhl (Berlin),Bahnsteig Gleis 1,52.527086,13.536604,0,de:11000:900171003,0,20.0,5656 S Springpfuhl (Berlin),68.0
de:11000:900171003:1:51,,S Springpfuhl (Berlin),Bahnsteig Gleis 2,52.52707,13.536465,0,de:11000:900171003,0,21.0,5656 S Springpfuhl (Berlin),68.0
de:11000:900175001:2:51,,S+U Wuhletal (Berlin),S-Bahn Bahnsteig Gleis 12,52.512452,13.575181,0,de:11000:900175001,0,,5656 S+U Wuhletal (Berlin),25.0
de:11000:900175002:1:50,,S Kaulsdorf (Berlin),S-Bahnsteig Gleis 1,52.512165,13.590481,0,de:11000:900175002,0,,5656 S Kaulsdorf (Berlin),157.0
de:11000:900175002:1:51,,S Kaulsdorf (Berlin),S-Bahnsteig Gleis 2,52.512076,13.590479,0,de:11000:900175002,0,,5656 S Kaulsdorf (Berlin),157.0
de:11000:900176001:1:50,,S Mahlsdorf Bhf (Berlin),S-Bahnsteig Gleis 1,52.512253,13.610598,0,de:11000:900176001,0,1.0,5656 S Mahlsdorf Bhf (Berlin),5.0
de:11000:900176001:1:51,,S Mahlsdorf Bhf (Berlin),S-Bahnsteig Gleis 2,52.512137,13.610641,0,de:11000:900176001,0,2.0,5656 S Mahlsdorf Bhf (Berlin),5.0
de:11000:900176001:2:52,,S Mahlsdorf Bhf (Berlin),S-Bahnsteig Gleis 3,52.512091,13.610667,0,de:11000:900176001,0,3.0,5656 S Mahlsdorf Bhf (Berlin),5.0
de:11000:900176001:2:53,,S Mahlsdorf Bhf (Berlin),S-Bahnsteig Gleis 4,52.511972,13.61072,0,de:11000:900176001,0,4.0,5656 S Mahlsdorf Bhf (Berlin),5.0
de:11000:900180001:1:50,,S Köpenick (Berlin),S-Bahnsteig Gleis 1,52.458653,13.581491,0,de:11000:900180001,0,1.0,5656 S Köpenick (Berlin),5.0
de:11000:900180001:1:51,,S Köpenick (Berlin),S-Bahnsteig Gleis 2,52.458514,13.581459,0,de:11000:900180001,0,2.0,5656 S Köpenick (Berlin),5.0
de:11000:900180002:1:50,,S Wuhlheide (Berlin),Bahnsteig Gleis 1,52.468668,13.55424,0,de:11000:900180002,0,1.0,5656 S Wuhlheide (Berlin),2.0
de:11000:900180002:1:51,,S Wuhlheide (Berlin),Bahnsteig Gleis 2,52.468594,13.554145,0,de:11000:900180002,0,2.0,5656 S Wuhlheide (Berlin),2.0
de:11000:900180003:1:50,,S Spindlersfeld (Berlin),S-Bahnsteig Gleis 1,52.447135,13.561301,0,de:11000:900180003,0,1.0,5656 S Spindlersfeld (Berlin),5.0
de:11000:900182001:1:50,,S Hirschgarten (Berlin),S-Bahnsteig Gleis 1,52.45795,13.603123,0,de:11000:900182001,0,1.0,5656 S Hirschgarten (Berlin),4.0
de:11000:900182001:1:51,,S Hirschgarten (Berlin),S-Bahnsteig Gleis 2,52.457868,13.603123,0,de:11000:900182001,0,2.0,5656 S Hirschgarten (Berlin),4.0
de:11000:900182002:1:51,,S Friedrichshagen (Berlin),S-Bahnsteig Gleis 3,52.457329,13.623213,0,de:11000:900182002,0,,5656 S Friedrichshagen (Berlin),5.0
de:11000:900183001:1:51,,S Rahnsdorf (Berlin),S-Bahnsteig Gleis 2,52.451598,13.689921,0,de:11000:900183001,0,2.0,5656 S Rahnsdorf (Berlin),1.0
de:11000:900183001:1:50,,S Rahnsdorf (Berlin),S-Bahnsteig Gleis 1,52.451677,13.689947,0,de:11000:900183001,0,1.0,5656 S Rahnsdorf (Berlin),1.0
de:11000:900183002:1:50,,S Wilhelmshagen (Berlin),Bahnsteig Gleis 1,52.438536,13.722166,0,de:11000:900183002,0,1.0,5656 S Wilhelmshagen (Berlin),9.0
de:11000:900183002:1:51,,S Wilhelmshagen (Berlin),Bahnsteig Gleis 2,52.438589,13.722319,0,de:11000:900183002,0,2.0,5656 S Wilhelmshagen (Berlin),9.0
de:11000:900186001::3,,S Grünau (Berlin),Bushalt Adlergestell ht. Richterstraße Pos. 11,52.413398,13.574074,0,,0,,5656 S Grünau (Berlin),4.0
de:11000:900191001:2:52,,S Baumschulenweg (Berlin),S-Bahnsteig Gleis 3,52.467495,13.489615,0,de:11000:900191001,0,3.0,5656 S Baumschulenweg (Berlin),5.0
de:11000:900191001:1:50,,S Baumschulenweg (Berlin),S-Bahnsteig Gleis 4,52.467637,13.489731,0,de:11000:900191001,0,4.0,5656 S Baumschulenweg (Berlin),5.0
de:11000:900191001:2:51,,S Baumschulenweg (Berlin),S-Bahnsteig Gleis 5,52.467537,13.489686,0,de:11000:900191001,0,5.0,5656 S Baumschulenweg (Berlin),5.0
de:11000:900191002:1:50,,S Plänterwald (Berlin),S-Bahnsteig Gleis 3,52.478467,13.47327,0,de:11000:900191002,0,3.0,5656 S Plänterwald (Berlin),5.0
de:11000:900191002:1:51,,S Plänterwald (Berlin),S-Bahnsteig Gleis 4,52.47853,13.47339,0,de:11000:900191002,0,4.0,5656 S Plänterwald (Berlin),5.0
de:11000:900192001:2:52,,S Schöneweide Bhf (Berlin),S-Bahnsteig Gleis 3,52.454742,13.50973,0,de:11000:900192001,0,,5656 S Schöneweide Bhf (Berlin),107.0
de:11000:900192001:2:53,,S Schöneweide Bhf (Berlin),S-Bahnsteig Gleis 4,52.4548,13.50983,0,de:11000:900192001,0,,5656 S Schöneweide Bhf (Berlin),107.0
de:11000:900192001:3:54,,S Schöneweide Bhf (Berlin),S-Bahnsteig Gleis 5,52.45485,13.509917,0,de:11000:900192001,0,,5656 S Schöneweide Bhf (Berlin),107.0
de:11000:900192001:3:55,,S Schöneweide Bhf (Berlin),S-Bahnsteig Gleis 6,52.454912,13.510019,0,de:11000:900192001,0,,5656 S Schöneweide Bhf (Berlin),107.0
de:11000:900192002:1:50,,S Oberspree (Berlin),S-Bahnsteig Gleis 1,52.452447,13.538028,0,de:11000:900192002,0,1.0,5656 S Oberspree (Berlin),5.0
de:11000:900193001:1:50,,S Johannisthal (Berlin),S-Bahnsteig Gleis 3,52.44662,13.524071,0,de:11000:900193001,0,3.0,5656 S Johannisthal (Berlin),4.0
de:11000:900193001:2:51,,S Johannisthal (Berlin),S-Bahnsteig Gleis 4,52.446662,13.524141,0,de:11000:900193001,0,4.0,5656 S Johannisthal (Berlin),4.0
de:11000:900193002:1:50,,S Adlershof (Berlin),S-Bahnsteig Gleis 3,52.434867,13.541224,0,de:11000:900193002,0,3.0,5656 S Adlershof (Berlin),1.0
de:11000:900193002:1:51,,S Adlershof (Berlin),S-Bahnsteig Gleis 4,52.434946,13.541382,0,de:11000:900193002,0,4.0,5656 S Adlershof (Berlin),1.0
de:11000:900193002::8,,S Adlershof (Berlin),Ersatzhalt Adlergestell ht. Rudower Chaussee,52.435107,13.541501,0,,0,,5656 S Adlershof (Berlin),4.0
de:11000:900195510::1,,S Altglienicke (Berlin),Bushalt Ewaldstraße vor Germanenstraße,52.408183,13.558478,0,,0,,5656 S Altglienicke (Berlin),4.0
de:11000:900196001::1,,S Grünbergallee (Berlin),Ersatzhalt Grünbergallee hinter Ewaldstraße,52.400016,13.544197,0,,0,,5656 S Grünbergallee (Berlin),4.0
de:11000:900030202:1:50,,S Stresow (Berlin),S-Bahnsteig Gleis 1,52.531988,13.209206,0,de:11000:900030202,0,,5656 S Stresow (Berlin),5.0
de:12061:900260005::2,,S Schönefeld (bei Berlin) Bhf,Bushalt Bahnhofsvorplatz 1. Busspur Pos. 11,52.390582,13.513265,0,,0,,5957 S Schönefeld (bei Berlin) Bhf,4.0
de:12064:900320007:1:50,,S Neuenhagen (b Berlin),S-Bahnsteig Gleis 1,52.52078,13.700395,0,de:12064:900320007,1,,5460 S Neuenhagen (b Berlin),50.0
de:11000:900025321:2:52,,S Olympiastadion (Berlin),S-Bahnsteig Gleis 3,52.511401,13.242749,0,de:11000:900025321,0,,5656 S Olympiastadion (Berlin),2.0
de:11000:900025321:3:54,,S Olympiastadion (Berlin),S-Bahnsteig Gleis 5,52.511565,13.242684,0,de:11000:900025321,0,,5656 S Olympiastadion (Berlin),2.0
de:11000:900025321:4:56,,S Olympiastadion (Berlin),S-Bahnsteig Gleis 7,52.511727,13.242607,0,de:11000:900025321,0,,5656 S Olympiastadion (Berlin),2.0
de:11000:900025321:5:59,,S Olympiastadion (Berlin),S-Bahnsteig Gleis 9,52.511888,13.242534,0,de:11000:900025321,0,,5656 S Olympiastadion (Berlin),2.0
de:11000:900053301::2,,S Wannsee Bhf (Berlin),Bushalt Kronprinzessinnenweg gegenüber dem G.-Hartmann-Platz,52.421563,13.177987,0,,0,,5656 S Wannsee Bhf (Berlin),9.0
de:11000:900007102::5,,S+U Gesundbrunnen Bhf (Berlin),Bushalt Hanne-Sobek-Platz vor dem Bahnhof,52.549019,13.388385,0,,0,,5555 S+U Gesundbrunnen Bhf (Berlin),4.0
de:11000:900007104::2,,S Nordbahnhof (Berlin),Tram u. Bussteig Invalidenstraße ht. Gartenstraße,52.531683,13.388813,0,,0,,5555 S Nordbahnhof (Berlin),4.0
